stop_id,stop_name,stop_lat,stop_lon
10311,45-Glenferrie Rd/Wattletree Rd (Malvern),-37.862296736384,145.028194441473
10371,44-Duncraig Ave/Wattletree Rd (Armadale),-37.8618932396197,145.025090664641
1083,42-Clyde St/Raleigh Rd (Maribyrnong),-37.7696986370071,144.898841257316
11285,43-Egerton Rd/Wattletree Rd (Armadale),-37.8615917660895,145.02270030676
1185,50-Vincent St/Wattletree Rd (Malvern East),-37.8643850684538,145.04371198053
12599,42-Kooyong Rd/Wattletree Rd (Armadale),-37.8611885083422,145.019619319081
1291,51-Erica Ave/Wattletree Rd (Malvern East),-37.8647820884121,145.046998020808
1292,38-Renown St/Sydney Rd (Coburg),-37.7316189410946,144.964265699442
13401,28-Punt Rd/High St (Prahran),-37.8507583612407,144.9843709904
13995,44-Barb St/Raleigh Rd (Maribyrnong),-37.7688912370602,144.891984560365
14033,29-Perth St/High St (Prahran),-37.8512067115911,144.987927449006
14614,30-Porter St/High St (Prahran),-37.8513923354106,144.98929759429
14728,31-Chapel St/High St (Prahran),-37.8519512424026,144.993533036311
15559,45-Randall St/Raleigh Rd (Maribyrnong),-37.7686294104152,144.888938214592
15699,32-Bangs St/High St (Prahran),-37.8523538154947,144.99653394762
1575,52-Burke Rd/Wattletree Rd (Malvern East),-37.8650763545021,145.050070824995
16610,33-The Avenue/High St (Prahran),-37.852623378873,144.998606523123
16713,34-Bell St/Sydney Rd (Coburg),-37.7414709211878,144.966469738312
16714,33-Coburg Market/Sydney Rd (Coburg),-37.7432587353562,144.96614843984
16715,32-Munro St/Sydney Rd (Coburg),-37.7450647587307,144.965837974213
16716,31-Reynard St/Sydney Rd (Coburg),-37.7487396573475,144.96520392047
16717,30-The Avenue/Sydney Rd (Coburg),-37.7520732405704,144.96463589898
16718,34-Lewisham Rd/High St (Prahran),-37.8528292112475,145.000112562951
16719,28-Moreland Rd/Sydney Rd (Brunswick),-37.7556402303876,144.964016018802
16720,27-Brunswick Tram Depot/Sydney Rd (Brunswick),-37.7578145712136,144.963638581575
16721,26-Albion St/Sydney Rd (Brunswick),-37.760959175516,144.963086937257
16722,25-Stewart St/Sydney Rd (Brunswick),-37.7632323967908,144.962695373577
16723,24-Brunswick Baptist Church/Sydney Rd (Brunswick),-37.7655776756106,144.962301804823
16724,23-Victoria St/Sydney Rd (Brunswick),-37.7671410623345,144.962031845405
16725,22-Albert St/Sydney Rd (Brunswick),-37.7689470621972,144.961721153568
16726,21-Brunswick Town Hall/Sydney Rd (Brunswick),-37.7716426455656,144.961261128651
16727,20-Barkly Square/115 Sydney Rd (Brunswick),-37.7748418604526,144.960741813361
16728,19-Brunswick Rd/Sydney Rd (Brunswick),-37.7772950185203,144.960333785301
16729,18-Princes Park/Royal Pde (Parkville),-37.779378865496,144.959935880516
16730,17-Ievers St/Royal Pde (Parkville),-37.7818880286246,144.959639798693
16731,16-Visy Park/Royal Pde (Parkville),-37.784855588661,144.959274308767
16732,15-Leonard St/Royal Pde (Parkville),-37.7879310385188,144.958894459914
16733,14-Macarthur Rd/Royal Pde (Parkville),-37.7900168417175,144.958609947437
16734,13-Gatehouse St/Royal Pde (Parkville),-37.7926791219199,144.958309546413
16735,12-Morrah St/Royal Pde (Parkville),-37.7956556771203,144.957943682364
16736,11-University of Melbourne/Royal Pde (Parkville),-37.7982731113992,144.957655817436
16738,35-Williams Rd/High St (Prahran),-37.8531690918207,145.002615157312
16739,36-Chatsworth Rd/High St (Prahran),-37.8537639403415,145.006872572986
16740,37-Airlie Ave/High St (Prahran),-37.8539928730026,145.00868491183
16741,38-Orrong Rd/High St (Prahran),-37.8543864402974,145.011708968351
16742,39-Auburn Gr/High St (Armadale),-37.8548715368821,145.015355721945
16743,40-Armadale Station/High St (Armadale),-37.8552743249116,145.018402337578
16744,41-Kooyong Rd/High St (Armadale),-37.8555850786323,145.020803590932
16745,42-Huntingtower Rd/High St (Armadale),-37.8559963534832,145.023827309351
16746,43-Mercer Rd/High St (Armadale),-37.8562889822279,145.026229094255
16747,44-Glenferrie Rd/High St (Malvern),-37.8567043037329,145.02950282056
16748,45-De La Salle College/High St (Malvern),-37.8571574650463,145.032889240976
16749,46-Fraser St/High St (Malvern),-37.8575575292364,145.035799731109
16750,47-Dixon St/High St (Malvern),-37.8578196735499,145.038009199395
16751,48-Tooronga Rd/High St (Glen Iris),-37.8582720256638,145.041361649363
16752,49-Harold Holt Swim Centre/High St (Glen Iris),-37.8586700474939,145.044704211228
16753,50-Belmont Ave/High St (Glen Iris),-37.8591100354732,145.048409431862
16754,51-Burke Rd/High St (Glen Iris),-37.8594857058288,145.051502596794
16755,52-Boyanda Rd/High St (Glen Iris),-37.8597824715441,145.054188670717
16757,53-Glen Iris Station/High St (Glen Iris),-37.860038267792,145.056580309849
16758,52-Boyanda Rd/High St (Glen Iris),-37.8596137548237,145.053795276896
16759,51-Burke Rd/High St (Glen Iris),-37.8593096654599,145.051211702636
16760,50-Erica Ave/High St (Glen Iris),-37.8589452563451,145.048254647391
16761,49-Harold Holt Swim Centre/High St (Glen Iris),-37.858454372767,145.044198422562
16762,48-Tooronga Rd/High St (Glen Iris),-37.8580775671492,145.041048539387
16764,47-Dixon St/High St (Malvern),-37.8576935640575,145.038012543333
16765,46-Fraser St/High St (Malvern),-37.8573831577274,145.035611134122
16766,45-De La Salle College/High St (Malvern),-37.8569417407218,145.032383499148
16767,44-Glenferrie Rd/High St (Malvern),-37.8565364575433,145.029166307829
16768,43-Mercer Rd/High St (Armadale),-37.8561218890654,145.025938034936
16769,42-Huntingtower Rd/High St (Armadale),-37.85583154364,145.023672587281
16770,41-Kooyong Rd/High St (Armadale),-37.8554191187517,145.020580711877
16771,40-Armadale Station/High St (Armadale),-37.8551185160135,145.018247388115
16772,39-Auburn Gr/High St (Armadale),-37.8546848695829,145.014974291975
16773,38-Orrong Rd/High St (Armadale),-37.8542198880685,145.011452032342
16774,37-Airlie Ave/High St (Prahran),-37.8538661890932,145.008654223863
16775,36-Park Rd/High St (Prahran),-37.8535555751941,145.006275808897
16776,35-Williams Rd/High St (Prahran),-37.8530109496424,145.00232392275
16777,34-Lewisham Rd/High St (Prahran),-37.8526507312802,144.999685499624
16778,33-The Avenue/High St (Prahran),-37.8524343403598,144.998088827111
1696,51-Nott St/Wattletree Rd (Malvern East),-37.8646127817757,145.046570531224
17306,40-North Coburg Terminus/Sydney Rd (Coburg North),-37.7275799981749,144.963650151836
17307,39-Mercy College/Sydney Rd (Coburg North),-37.7298906497122,144.963859170437
17308,38-Carr St/Sydney Rd (Coburg North),-37.7321118173884,144.964626647696
17309,37-Gaffney St/Sydney Rd (Coburg North),-37.733855577222,144.965407237242
17310,36-Rogers St/Sydney Rd (Coburg),-37.7355343214141,144.9660761667
17311,35-St Pauls Catholic Church/Sydney Rd (Coburg),-37.7375046330419,144.96693005852
17312,34-Bell St/Sydney Rd (Coburg),-37.7411587871036,144.966659853407
17313,33-Coburg Market/Sydney Rd (Coburg),-37.7431361532803,144.966356069976
17314,32-Harding St/Sydney Rd (Coburg),-37.7448883276337,144.966058433153
17315,31-Edward St/Sydney Rd (Coburg),-37.7484735438061,144.965449547379
17316,30-The Avenue/Sydney Rd (Coburg),-37.7518605863115,144.96484602495
17317,29-Moore St/Sydney Rd (Coburg),-37.7535046614548,144.96455127064
17318,28-Moreland Rd/Sydney Rd (Coburg),-37.7553108713523,144.964252057159
17319,27-Brunswick Tram Depot/Sydney Rd (Brunswick),-37.7574221603303,144.963876357798
17320,26-Albion St/Sydney Rd (Brunswick),-37.7607377137769,144.963308686831
17321,25-Stewart St/Sydney Rd (Brunswick),-37.7630828003152,144.962903807962
17322,24-Blyth St/Sydney Rd (Brunswick),-37.7653560197257,144.962512224513
17323,23-Victoria St/Sydney Rd (Brunswick),-37.7669822636514,144.962229192841
17324,22-Albert St/Sydney Rd (Brunswick),-37.7687612416234,144.961919248583
17325,21-Glenlyon Rd/Sydney Rd (Brunswick),-37.7713669471506,144.961473053776
17327,19-Brunswick Rd/Sydney Rd (Brunswick),-37.7775848311524,144.960416649999
17328,18-Princes Park/Royal Pde (Parkville),-37.7793826000155,144.960151506131
17329,17-Ievers St/Royal Pde (Parkville),-37.7816841980721,144.959838430183
17330,16-Walker St/Royal Pde (Parkville),-37.7845892964667,144.959508732384
17331,15-Leonard St/Royal Pde (Parkville),-37.7876737550257,144.959128647263
17332,14-Cemetery Road West/Royal Pde (Parkville),-37.7897151117883,144.958879432929
17333,13-Gatehouse St/Royal Pde (Parkville),-37.7924218402772,144.958543751493
17334,12-Morrah St/Royal Pde (Parkville),-37.7955599407928,144.958139380817
17335,11-University of Melbourne/Royal Pde (Parkville),-37.7981053160361,144.957853507901
17591,7-Russell St/Bourke St (Melbourne City),-37.8127776804857,144.968342787054
17593,6-Swanston St/Bourke St (Melbourne City),-37.8135199730419,144.965925611018
17594,5-Elizabeth St/Bourke St (Melbourne City),-37.8142692581705,144.963394600148
17596,4-Queen St/Bourke St (Melbourne City),-37.8149385999175,144.960933895933
17597,3-William St/Bourke St (Melbourne City),-37.8156441155192,144.958483510965
17602,32-Hornby St/High St (Prahran),-37.8521989460251,144.996435851972
17603,31-Chapel St/High St (Prahran),-37.851756467046,144.99320872374
17604,30-Latrobe St/High St (Windsor),-37.8513186403338,144.989731474566
17605,29-Perth St/High St (Windsor),-37.8510500877367,144.987727134116
17606,28-Punt Rd/High St (Windsor),-37.850563561429,144.984046708179
1784,37-Gaffney St/Sydney Rd (Coburg),-37.7340974118228,144.965321186506
17848,1-Spencer St/Bourke St (Melbourne City),-37.8170628127416,144.953514231716
17849,1-Spencer St/Bourke St (Melbourne City),-37.816708503756,144.954387364436
17850,1-Flinders Street Railway Station/Elizabeth St (Melbourne City),-37.8180350427649,144.964892866207
17851,2-Collins St/Elizabeth St (Melbourne City),-37.8153813017061,144.963602590486
17852,3-Bourke Street Mall/Elizabeth St (Melbourne City),-37.8134011738147,144.962702817948
17854,5-Melbourne Central Station/Elizabeth St (Melbourne City),-37.8105584510329,144.961429251208
17856,7-Queen Victoria Market/Elizabeth St (Melbourne City),-37.8066522043983,144.95962848753
17857,8-Peel St/Victoria St (Melbourne City),-37.8059808316788,144.956250866916
17858,9-William St/Victoria St (Melbourne City),-37.8056878135839,144.953907809577
17859,10-Chetwynd St/Victoria St (Melbourne City),-37.8055172520089,144.952390529959
17860,11-Errol St/Victoria St (Melbourne City),-37.8051862643547,144.949423860689
17861,11-Victoria St/Errol St (North Melbourne),-37.804959497497,144.949339269251
17862,10-Chetwynd St/Victoria St (Melbourne City),-37.8054028453396,144.952030231038
17863,9-Howard St/Victoria St (Melbourne City),-37.8055636148477,144.953502345242
17864,8-Peel St/Victoria St (Melbourne City),-37.8058098299096,144.955744464068
17866,9-Haymarket/Elizabeth St (Melbourne City),-37.8019465824166,144.957463766369
17867,10-Royal Melbourne Hospital/Royal Pde (Melbourne City),-37.7999005097903,144.957440632021
17868,10-Royal Melbourne Hospital/Royal Pde (Parkville),-37.7995799817771,144.957665248981
17869,9-Haymarket/Elizabeth St (Melbourne City),-37.8021316538889,144.95774260771
17871,7-Queen Victoria Market/Elizabeth St (Melbourne City),-37.8069539749858,144.959881423069
17873,5-Melbourne Central Station/Elizabeth St (Melbourne City),-37.8111051886903,144.961777700547
17875,3-Bourke Street Mall/Elizabeth St (Melbourne City),-37.8140393577515,144.963128291711
17876,2-Collins St/Elizabeth St (Melbourne City),-37.8160196790695,144.964039437094
17877,1-Flinders Street Railway Station/Elizabeth St (Melbourne City),-37.8178989492806,144.964839803919
17878,12-Melbourne Museum/Nicholson St (Fitzroy),-37.8059735884314,144.9735609721
17879,11-Victoria Pde/Nicholson St (Fitzroy),-37.8075103616723,144.97331450798
17880,10-Albert St/Nicholson St (Fitzroy),-37.8090469382981,144.97305667886
17882,9-Spring St/Bourke St (Melbourne City),-37.8115439967396,144.972579462043
17885,3-William St/Bourke St (Melbourne City),-37.815707315119,144.957970583885
17886,4-Queen St/Bourke St (Melbourne City),-37.8149933929609,144.960455285787
17887,5-Elizabeth St/Bourke St (Melbourne City),-37.8141337532463,144.963375605198
17888,6-Swanston St/Bourke St (Melbourne City),-37.8134022872285,144.965894763121
17889,7-Russell St/Bourke St (Melbourne City),-37.81284131579,144.967852594164
1789,50-Anderson St/Wattletree Rd (Malvern East),-37.864226269092,145.043375161327
17891,9-Spring St/Bourke St (Melbourne City),-37.8114118159135,144.972753463703
17892,10-Albert St/Nicholson St (East Melbourne),-37.8094227142082,144.972898738855
17893,11-Victoria Pde/Nicholson St (East Melbourne),-37.8083083200495,144.973076877145
17894,12-Melbourne Museum/Nicholson St (Fitzroy),-37.8056217080048,144.973536516763
17895,12-St Vincents Plaza/Victoria Pde (East Melbourne),-37.8082797817044,144.976133114639
17896,11-Albert St/Gisborne St (East Melbourne),-37.8093902785535,144.975727953801
17897,10-Parliament Railway Station/Macarthur St (East Melbourne),-37.8123600886458,144.974442764339
17898,8-Spring St/Collins St (Melbourne City),-37.8135581326389,144.973364956067
17901,6-Melbourne Town Hall/Collins St (Melbourne City),-37.815695289447,144.966127174382
17902,5-Elizabeth St/Collins St (Melbourne City),-37.8163410031657,144.96386021165
17903,3-William St/Collins St (Melbourne City),-37.8176070447224,144.959429108104
17905,1-Spencer St/Collins St (Melbourne City),-37.8188819222512,144.954997611138
17906,1-Spencer St/Collins St (Melbourne City),-37.8187730443174,144.954955175574
17908,3-William St/Collins St (Melbourne City),-37.8173721073332,144.959912695737
17910,5-Elizabeth St/Collins St (Melbourne City),-37.8162319316975,144.963806409815
17911,6-Melbourne Town Hall/Collins St (Melbourne City),-37.8155590003195,144.966062756985
17914,8-Spring St/Collins St (Melbourne City),-37.8134312454799,144.97332298856
17915,10-Parliament Railway Station/Macarthur St (East Melbourne),-37.8123579401624,144.974317871838
17917,46-Rosamond Rd/Raleigh Rd (Maribyrnong),-37.7688871740039,144.886728521299
17918,48-Raleigh Rd/Wests Rd (Maribyrnong),-37.7696369311399,144.882813269946
17919,49-Highpoint Shopping Centre/Wests Rd (Maribyrnong),-37.7732477819447,144.882153964074
17920,50-Wests Rd/Williamson Rd (Maribyrnong),-37.7752121401669,144.882143317617
17921,51-Williamson Rd/Rosamond Rd (Maidstone),-37.775842174923,144.885610842864
17922,52-Rosamond Rd/River St (Maribyrnong),-37.7792996745308,144.885444195513
17923,53-Maribyrnong College/River St (Maribyrnong),-37.7796383951944,144.888250341104
17924,54-Gordon St/River St (Maribyrnong),-37.780016532444,144.891248412761
17925,55-Lyric St/Gordon St (Maribyrnong),-37.7822406804958,144.891151132567
17926,56-Edgewater Square/Gordon St (Maribyrnong),-37.7849436913629,144.890620100415
17927,57-Titch St/Gordon St (Footscray),-37.7886440453575,144.889924389874
17928,58-Ballarat Rd/Gordon St (Footscray),-37.7912796667021,144.889656357568
17929,59-Droop St/Ballarat Rd (Footscray),-37.79258435362,144.893571127356
17930,60-Tiernan St/Droop St (Footscray),-37.794890064932,144.895515713716
17931,61-Geelong Rd/Droop St (Footscray),-37.7967933529968,144.897131128735
17932,62-Nicholson St/Hopkins St (Footscray),-37.7998407375745,144.899736344219
17933,63-Hopkins St/Leeds St (Footscray),-37.8000805887133,144.901058340646
17934,64-Footscray Station/Leeds St (Footscray),-37.8012861294815,144.900944709652
17935,40-Epsom Rd/Maribyrnong Rd (Moonee Ponds),-37.7704323009551,144.90512120615
17936,39-Bowen St/Maribyrnong Rd (Moonee Ponds),-37.7708617445155,144.909003068239
17937,38-Hotham St/Maribyrnong Rd (Moonee Ponds),-37.7712361719225,144.912330238095
17938,37-Union Rd/Maribyrnong Rd (Moonee Ponds),-37.7716739860245,144.916189247571
17939,36-86 Maribyrnong Rd (Moonee Ponds),-37.7718914510124,144.918294780623
17940,35-Moore St/Maribyrnong Rd (Moonee Ponds),-37.7722119714655,144.921135380945
17941,34-Ascot Vale Rd/Maribyrnong Rd (Moonee Ponds),-37.7724735799606,144.923705183016
17942,33-Chaucer St/Ascot Vale Rd (Moonee Ponds),-37.7700506031138,144.92428383218
17944,49-Central Park Ave/Cordite Ave (Maribyrnong),-37.7688533409288,144.877829228655
17945,36-St Leonards Rd/Union Rd (Ascot Vale),-37.7735711076006,144.915942976992
17946,35-Bloomfield Rd/Union Rd (Ascot Vale),-37.7758893602206,144.91555997454
17947,34-Burrowes St/Union Rd (Ascot Vale),-37.7785320722097,144.915179182306
17948,33-Melbourne Showgrounds/Union Rd (Ascot Vale),-37.7804539999303,144.914807261485
17949,32-Sandown Rd/Epsom Rd (Ascot Vale),-37.7825874341073,144.916711634274
17950,31-Racing Victoria/161 Epsom Rd (Ascot Vale),-37.7840182538526,144.918124863273
17951,30-Flemington Dr/Epsom Rd (Ascot Vale),-37.7858796164655,144.919934852628
17952,29-Flemington Racecourse/Racecourse Rd (Flemington),-37.7873940752088,144.922004466819
17953,28-Smithfield Rd/Racecourse Rd (Flemington),-37.7876262500965,144.92495034544
17954,26-Newmarket Plaza/Racecourse Rd (Flemington),-37.7879710321469,144.928154271914
17955,25-Wellington St/Racecourse Rd (Flemington),-37.7882686975659,144.93124598947
17956,24-Victoria St/Racecourse Rd (Flemington),-37.7884432609901,144.933489501867
17957,23-Stubbs St/Racecourse Rd (Flemington),-37.7887678095716,144.936580515234
17958,22-Boundary Rd/Racecourse Rd (North Melbourne),-37.7891314841021,144.939852159566
17959,20-Melrose St/Flemington Rd (North Melbourne),-37.7904209591595,144.943506971714
17961,19-Abbotsford St Interchange/Abbotsford St (North Melbourne),-37.7941062974166,144.947095593477
18006,11-Albert St/Gisborne St (East Melbourne),-37.8096945835443,144.975606054967
18009,10-Nicholson St/Victoria Pde (East Melbourne),-37.8080192779964,144.973561839542
18010,9-La Trobe St/Victoria St (Melbourne City),-37.8076046125023,144.970938011066
18011,8-Exhibition St/La Trobe St (Melbourne City),-37.8081033710172,144.969027481611
18012,7-Russell St/La Trobe St (Melbourne City),-37.8088268835543,144.966565547571
18030,6-Swanston St/La Trobe St (Melbourne City),-37.80954995054,144.964080860759
18031,5-Elizabeth St/La Trobe St (Melbourne City),-37.810290978542,144.961595632072
18032,4-Queen St/La Trobe St (Melbourne City),-37.8110051269582,144.959122453396
18033,3-William St/La Trobe St (Melbourne City),-37.8117113966249,144.956717599289
18034,2-King St/La Trobe St (Melbourne City),-37.8124504893058,144.95413004698
18035,1-Spencer St/La Trobe St (Melbourne City),-37.8131468566369,144.951679936074
18037,D10-NewQuay Prom/Docklands Dr (Docklands),-37.8137810526399,144.940507505457
18038,D11-Waterfront City/434 Docklands Dr (Docklands),-37.8144604467614,144.938648391228
18039,D10-NewQuay Prom/Docklands Dr (Docklands),-37.8133119284801,144.941508800813
18040,D1-Etihad Stadium/La Trobe St (Docklands),-37.8145779368076,144.946403652144
18041,119-Spencer St/La Trobe St (Melbourne City),-37.8131826095988,144.951145061354
18042,2-King St/La Trobe St (Melbourne City),-37.8124796139279,144.953731671522
18043,3-William St/La Trobe St (Melbourne City),-37.8117922100587,144.956181494349
18044,4-Queen St/La Trobe St (Melbourne City),-37.8110610943115,144.958711989117
18045,5-Elizabeth St/La Trobe St (Melbourne City),-37.8103547826668,144.961116804687
18046,6-Swanston St/La Trobe St (Melbourne City),-37.8096401984015,144.963567237319
18047,7-Russell St/La Trobe St (Melbourne City),-37.8089089194077,144.966097591997
18048,8-Exhibition St/La Trobe St (Melbourne City),-37.8081850251561,144.968536826555
18049,9-Victoria St/La Trobe St (Melbourne City),-37.8076661072201,144.970322970051
18050,10-Nicholson St/Victoria Pde (Carlton),-37.8078356284022,144.972839915879
18051,12-St Vincents Plaza/Victoria Pde (Fitzroy),-37.8082311995601,144.976452481154
18052,D2-Central Pier/Harbour Esp (Docklands),-37.814409453744,144.945011106799
18053,D3-Bourke St/Harbour Esp (Docklands),-37.8177271522475,144.94612325473
18054,D4-Docklands Park/Harbour Esp (Docklands),-37.8213480234809,144.94756791155
18055,D5-South Wharf/Wurundjeri Way (Docklands),-37.8218006024367,144.95130437397
18056,D6-Flinders Street West/637 Flinders St (Docklands),-37.8214365397743,144.953688797667
18057,18-Chapman St/Abbotsford St (North Melbourne),-37.794959825224,144.946947044166
18058,17-Molesworth St/Abbotsford St (North Melbourne),-37.7963073748915,144.946705315565
18059,16-Haines St/Abbotsford St (North Melbourne),-37.7982838583697,144.946355302985
18060,15-Arden St/Abbotsford St (North Melbourne),-37.8003592230481,144.945991172666
18061,14-Queensberry St/Abbotsford St (North Melbourne),-37.802389548346,144.945628267309
18063,22-Royal Park/Royal Park (Parkville),-37.7913797768155,144.949396828203
18064,23-Macarthur Rd/Royal Park (Parkville),-37.7881060099655,144.949771221097
18065,24-State Netball Hockey Centre/Royal Park (Parkville),-37.7840867464679,144.948735465533
18066,25-Melbourne Zoo/Royal Park (Parkville),-37.7824220338257,144.949394639531
18067,26-Royal Park Station/Royal Park (Parkville),-37.780753001604,144.951359647705
18068,28-Park St/Royal Park (Parkville),-37.7772412481636,144.949969258524
18069,29-Brunswick Rd/Grantham St (Brunswick West),-37.7755376903285,144.948915029137
18071,30-Union Square Shopping Centre/Grantham St (Brunswick West),-37.7723671456195,144.949524892236
18072,31-Grantham St/Dawson St (Brunswick West),-37.77008221216,144.949758306118
18073,32-Foden St/Dawson St (Brunswick),-37.7697885036791,144.947382366468
18074,33-Daly St/Dawson St (Brunswick West),-37.7693990289609,144.944169008089
18075,34-Smith St/Melville Rd (Brunswick),-37.7673114725616,144.943318644467
18076,35-Victoria St/Melville Rd (Brunswick West),-37.7647080305477,144.943890252582
18077,36-Hope St/Melville Rd (Brunswick West),-37.7620401454899,144.944384140438
18078,37-Albion St/Melville Rd (Brunswick West),-37.7585631683439,144.944991188599
18079,38-Jacobs Reserve/Melville Rd (Brunswick West),-37.7566234933475,144.945385384708
18080,39-Mattingley Cres/Melville Rd (Brunswick West),-37.754799725995,144.945708249809
18081,40-Moreland Rd/Melville Rd (Brunswick West),-37.7531629379661,144.945901075068
18082,41-Lever St/Melville Rd (Pascoe Vale South),-37.7493172303387,144.946552202432
18083,42-Reynard St/Melville Rd (Pascoe Vale South),-37.7463986381232,144.944556004701
18084,43-Princes Tce/Melville Rd (Pascoe Vale South),-37.743928111469,144.944998862619
18085,44-Brearley Pde/Melville Rd (Pascoe Vale South),-37.7415921002436,144.945403922718
18086,45-Bell St/Melville Rd (Pascoe Vale South),-37.7394054559774,144.945589213156
18087,3-Market St/Flinders St (Melbourne City),-37.8191989686733,144.9613278651
18089,4-Elizabeth St/Flinders St (Melbourne City),-37.8182034371668,144.964729199967
18090,5-Swanston St/Flinders St (Melbourne City),-37.8175312739955,144.967031018852
18091,6-Russell St/Flinders St (Melbourne City),-37.816461746097,144.970854542583
18092,8-Spring St/Flinders St (Melbourne City),-37.8153188585144,144.974611804409
18093,9-Lansdowne St/Wellington Pde (East Melbourne),-37.8154528504892,144.977164070047
18094,10-Jolimont Rd/Wellington Pde (East Melbourne),-37.8157502872648,144.979791408019
18095,11-Clarendon St/Wellington Pde (East Melbourne),-37.8163411003011,144.984819064115
18097,13-Simpson St/Wellington Pde (East Melbourne),-37.8165403338576,144.986983379958
18098,14-Punt Rd/Wellington Pde (Melbourne City),-37.8173883754267,144.989675381289
18099,14-Punt Rd/Bridge Rd (Richmond),-37.8175327939717,144.99021674427
18100,13-Simpson St/Wellington Pde (East Melbourne),-37.8166031929708,144.986970312458
18102,11-Clarendon St/Wellington Pde (East Melbourne),-37.8162458431575,144.983992388041
18103,10-Jolimont Rd/Wellington Pde (East Melbourne),-37.8157693218314,144.979325139981
18104,9-Lansdowne St/Wellington Pde (Melbourne City),-37.8154712893576,144.976663740613
18105,8-Spring St/Flinders St (Melbourne City),-37.8155366244355,144.974174184246
18108,7B-Rod Laver Arena/Melbourne Park (Melbourne City),-37.8195869683504,144.979130145964
18116,7C-MCG - Hisense Arena/Melbourne Park (Melbourne City),-37.8224309417451,144.983642318437
18118,7D-AAMI Park/Melbourne Park (Melbourne City),-37.8241350986156,144.986856550027
18121,7E-Punt Rd/Swan St (Richmond),-37.8245227690774,144.988447928987
18126,7E-Punt Rd/Swan St (Richmond),-37.8246848217989,144.988966140081
18155,7D-AAMI Park/Melbourne Park (Melbourne City),-37.8238268987733,144.986751315461
18161,7C-MCG - Hisense Arena/Melbourne Park (Melbourne City),-37.8221371188325,144.982798261415
18172,7B-Rod Laver Arena/Melbourne Park (Melbourne City),-37.819349499268,144.978420925071
18173,7-Exhibition St/Flinders St (Melbourne City),-37.8162169607848,144.971815467906
18174,6-Russell St/Flinders St (Melbourne City),-37.8166571764251,144.970167599675
18175,5-Swanston St/Flinders St (Melbourne City),-37.8175890436644,144.967245273711
18176,4-Elizabeth St/Flinders St (Melbourne City),-37.8181415820029,144.965321622806
18178,3-Market St/Flinders St (Melbourne City),-37.8192716181461,144.961359946866
18179,D6-Victoria Police Centre/637 Flinders St (Southbank),-37.8217256919492,144.953215026386
18180,D5-South Wharf/Wurundjeri Way (Docklands),-37.8220270881544,144.950855045773
18181,D4-Docklands Park/Harbour Esp (Docklands),-37.8219068767164,144.947575150645
18182,D3-Bourke St/Harbour Esp (Docklands),-37.8177263599832,144.946077836787
18183,D2-Central Pier/Harbour Esp (Docklands),-37.8145460409416,144.944575658694
18184,125-Clarendon St/Normanby Rd (Southbank),-37.825688033083,144.95668432986
18185,124A-Casino/MCEC/Clarendon St (Southbank),-37.8232890428333,144.956057488426
18186,124-Batman Park/Spencer St (Melbourne City),-37.8216631102213,144.955318465347
18187,122-Southern Cross Railway Station/Spencer St (Melbourne City),-37.8188009193715,144.953966072665
18189,120-Lonsdale St/Spencer St (Melbourne City),-37.8153128594759,144.95238116034
18190,119-La Trobe St/Spencer St (Melbourne City),-37.8134051088308,144.951502408285
18191,119-La Trobe St/Spencer St (Melbourne City),-37.8130880716602,144.951408938279
18192,120-Lonsdale St/Spencer St (Melbourne City),-37.8149601881796,144.952311388325
18193,121-Bourke St/Spencer St (Melbourne City),-37.816904357868,144.953211891683
18194,122-Southern Cross Railway Station/Spencer St (Melbourne City),-37.8187756728879,144.954069011181
18196,124-Batman Park/Spencer St (Melbourne City),-37.8214751375335,144.95539181652
18197,124A-Casino/MCEC/Clarendon St (Southbank),-37.8235908215155,144.956310462766
18198,124B-Whiteman St/Clarendon St (Southbank),-37.8249261464123,144.956921206403
18199,5-Bourke St/William St (Melbourne City),-37.8158743716263,144.958249973131
18200,6-Lonsdale St/William St (Melbourne City),-37.8139036083016,144.957372799845
18201,7-Flagstaff Railway Station/William St (Melbourne City),-37.8120141031838,144.956504789539
18202,8-Franklin St/William St (Melbourne City),-37.8097429288528,144.955454249807
18203,10-Victoria St/Peel St (West Melbourne),-37.8060287677231,144.955897441143
18204,10-Victoria St/Peel St (West Melbourne),-37.8056984480512,144.956076921926
18205,9-Queen Victoria Market/49 Peel St (North Melbourne),-37.8071004567884,144.955856529917
18206,9-Queen Victoria Market/49 Peel St (North Melbourne),-37.806999798225,144.95576843898
18207,8-Franklin St/Peel St (Melbourne City),-37.8094278655943,144.955474299454
18208,7-Flagstaff Railway Station/William St (Melbourne City),-37.8115617606746,144.956403671358
18209,6-Lonsdale St/William St (Melbourne City),-37.813505705049,144.957292892423
18210,5-Bourke St/William St (Melbourne City),-37.8154402422203,144.958159697871
18211,4-Collins St/William St (Melbourne City),-37.8174570216423,144.959092440851
18213,2-Market St/Flinders Lane (Melbourne City),-37.8182725005484,144.960387748998
18214,1-Flinders St/Queens Bridge St (Melbourne City),-37.8195128534123,144.961239706552
18215,112-Casino East/Queens Bridge St (Southbank),-37.8218211213576,144.961312515
18217,115-York St/Kings Way (South Melbourne),-37.8296100090513,144.964074939647
18218,116-Sturt St/Kings Way (Southbank),-37.8305362552186,144.965003884104
18219,118-Park St/Kings Way (South Melbourne),-37.8332403444799,144.967645192003
18221,118-Kings Way/Park St (South Melbourne),-37.8333574516452,144.968164649221
18222,116-Sturt St/Kings Way (Southbank),-37.831074369089,144.965375408369
18223,115-York St/Kings Way (South Melbourne),-37.8295710333201,144.963905583629
18224,20-Kings Way/Sturt St (Southbank),-37.8301360228121,144.965310290813
18225,19-Miles St/Sturt St (Southbank),-37.8284314728092,144.96575477424
18226,18-Grant St/Sturt St (Southbank),-37.8257791888915,144.966634261355
18227,17-Southbank Bvd/Sturt St (Southbank),-37.8235269391782,144.967195961578
18229,17-Sturt St/Southbank Bvd (Southbank),-37.8236174160844,144.967738802946
18230,18-Grant St/Sturt St (Southbank),-37.8257807578324,144.966725108278
18231,19-Miles St/Sturt St (Southbank),-37.828184364948,144.966056962891
18232,20-Kings Way/Sturt St (Southbank),-37.8301377891862,144.965412499527
18233,114-City Rd/Kings Way (Southbank),-37.8262601809962,144.960576837407
18341,24-Grattan St/Church St (Hawthorn),-37.8178795553979,145.01865303329
18342,25-Brook St/Church St (Hawthorn),-37.8159207279867,145.02060249978
18343,26-Barkers Rd/Church St (Hawthorn),-37.8132710758079,145.023274578718
18347,34-Pakington St/High St (Kew),-37.8056166149118,145.03383743858
18348,35-Cobden St/High St (Kew),-37.80509138822,145.035305217239
18349,36-Parkhill Rd/High St (Kew),-37.8034893267912,145.039754558615
18350,37-Kew Cemetery/High St (Kew),-37.8024726579688,145.04256410053
18351,38-Victoria Park/High St (Kew),-37.8012587220933,145.045980720354
18352,39-Harp Rd/High St (Kew),-37.79942954055,145.050344716809
18353,40-Harp Village/High St (Kew East),-37.798628233488,145.052023941162
18354,41-Clyde St/High St (Kew East),-37.7974393592639,145.05479222146
18355,42-Irymple Ave/High St (Kew East),-37.796396999794,145.057159084077
18356,43-Kew High School/High St (Kew East),-37.7946334718068,145.061157391729
18357,44-Burke Rd/High St (Kew),-37.7935301622666,145.063661944687
18358,45-Burke Rd/Doncaster Rd (Balwyn North),-37.7931681873935,145.065215867484
18359,46-Wattle Ave/Doncaster Rd (Balwyn North),-37.7928537742631,145.06747263057
18360,47-North Balwyn Shopping Centre/Doncaster Rd (Balwyn North),-37.7927115271148,145.071439703874
18361,48-Sunburst Ave/Doncaster Rd (Balwyn North),-37.7932173767663,145.074265659009
18362,49-Cityview Rd/Doncaster Rd (Balwyn North),-37.7937562995976,145.077465561587
18363,50-Hill Rd/Doncaster Rd (Balwyn North),-37.7942586046675,145.081188863697
18364,36-St Kilda Primary School/Brighton Rd (Elwood),-37.8701204626572,144.988345180965
18365,38-Wimbledon Ave/Brighton Rd (Elwood),-37.8728806139087,144.990077695551
18367,39-Glen Eira Rd/Brighton Rd (Elwood),-37.8759596901541,144.992017684911
18368,40-Scott St/Brighton Rd (Elwood),-37.8789474996637,144.993892090282
18369,41-Coleridge St/Brighton Rd (Elwood),-37.8808421799702,144.995079982449
18370,42-Hotham St/Brighton Rd (St Kilda East),-37.8828643097445,144.996344069577
18371,43-Brighton Rd/Glenhuntly Rd (Elsternwick),-37.8839036362935,144.997577995153
18372,44-Elsternwick Railway Station/Glenhuntly Rd (Elsternwick),-37.8843057551516,145.000557492297
18373,45-Elsternwick Shopping Centre/Glenhuntly Rd (Elsternwick),-37.8847507705128,145.003945198274
18374,46-Orrong Rd/Glenhuntly Rd (Elsternwick),-37.8850505247479,145.00621118979
18375,47-Shoobra Rd/Glenhuntly Rd (Elsternwick),-37.8853880281856,145.009112930687
18376,48-Parkside St/Glenhuntly Rd (Elsternwick),-37.8857563235242,145.012241282169
18392,49-Kooyong Rd/Glenhuntly Rd (Elsternwick),-37.8861017288483,145.015086015621
18393,50-Royal Pde/Glenhuntly Rd (Caulfield),-37.8864976556032,145.018259171634
18394,51-Hawthorn Rd/Glenhuntly Rd (Caulfield),-37.8869781693411,145.022180568643
18395,52-Jasmine St/Glenhuntly Rd (Caulfield),-37.8872183777077,145.024141288394
18396,53-Glenhuntly Tram Depot/Glenhuntly Rd (Caulfield),-37.8876106330206,145.027109967466
18397,54-Bambra Rd/Glenhuntly Rd (Caulfield),-37.8878388967807,145.02890047642
18398,55-Fallon St/Glenhuntly Rd (Caulfield),-37.8881081096177,145.030985550381
18399,56-Kean St/Glenhuntly Rd (Caulfield),-37.8884193957469,145.033433392361
18400,57-Laura St/Glenhuntly Rd (Caulfield),-37.8886699443587,145.035484883526
18401,58-Booran Rd/Glenhuntly Rd (Caulfield),-37.8889610376011,145.037808218733
18403,60-Glenhuntly Shops/Glenhuntly Rd (Glen Huntly),-37.8893881115743,145.041265082918
18404,61-Glenhuntly Railway Station/Glenhuntly Rd (Glen Huntly),-37.8895585237915,145.0428411615
18405,62-Grange Rd/Glenhuntly Rd (Glen Huntly),-37.8898286252273,145.044994542784
18406,63-Maroona Rd/Glenhuntly Rd (Carnegie),-37.8901432061747,145.047658473016
18407,64-Mernda Ave/Glenhuntly Rd (Carnegie),-37.8904237351402,145.049902585919
18408,65-Mimosa Rd/Glenhuntly Rd (Carnegie),-37.8907139821844,145.052191945965
18409,66-Glenhuntly Rd/Truganini Rd (Carnegie),-37.8910691060516,145.05404750214
18410,67-Centre Rd/Truganini Rd (Carnegie),-37.8926965346396,145.054368542811
18411,68-Carnegie/Truganini Rd (Carnegie),-37.8939479052667,145.055927659402
18412,68-East Brighton/Hawthorn Rd (Brighton East),-37.9142657391808,145.016831667176
18413,67-Howell St/Hawthorn Rd (Brighton East),-37.9110940964623,145.017394569948
18414,66-Union St/Hawthorn Rd (Brighton East),-37.9087302621264,145.017765128011
18415,65-Alexander St/Hawthorn Rd (Brighton East),-37.9065737922493,145.018141468691
18416,64-Taylor St/Hawthorn Rd (Brighton East),-37.9040941933287,145.01859469276
18417,63-North Rd/Hawthorn Rd (Brighton East),-37.9015699353559,145.019071826209
18418,62-Gardenvale Rd/Hawthorn Rd (Caulfield South),-37.8994958650347,145.019525482734
18419,61-Raynes St/Hawthorn Rd (Caulfield South),-37.8967023261906,145.020066624959
18420,60-Dover St/Hawthorn Rd (Caulfield South),-37.8950583221713,145.020372232699
18421,59-Princes Park/Hawthorn Rd (Caulfield South),-37.893126835809,145.020731012186
18422,58-Sycamore St/Hawthorn Rd (Caulfield South),-37.889937712555,145.021328127566
18423,57-Glenhuntly Rd/Hawthorn Rd (Caulfield South),-37.8869912176477,145.021884579799
18424,56-Lockhart St/Hawthorn Rd (Caulfield),-37.8845838422476,145.022346966917
18425,55-Sylverly Gr/Hawthorn Rd (Caulfield),-37.8827336040246,145.022714828663
18426,54-Glen Eira Rd/Hawthorn Rd (Caulfield),-37.8801284344921,145.023205184034
18427,53-Crotonhurst Ave/Hawthorn Rd (Caulfield North),-37.8774876116927,145.023719192313
18428,52-Powderham Rd/Hawthorn Rd (Caulfield North),-37.8752509871947,145.024154146063
18429,51-Balaclava Rd/Hawthorn Rd (Caulfield North),-37.8728884421404,145.024603802704
18430,50-Inkerman Rd/Hawthorn Rd (Caulfield North),-37.8696990890331,145.025189186652
18431,49-Wanda Rd/Hawthorn Rd (Caulfield North),-37.8679923854107,145.025518951528
18432,48A-Dandenong Rd/Hawthorn Rd (Caulfield North),-37.8659905208276,145.025981619729
18437,44-Bailey Ave/Dandenong Rd (Armadale),-37.8646180957103,145.023676576505
18438,43-Matlock Ct/Dandenong Rd (Armadale),-37.8638224720632,145.021913183252
18439,42-Kooyong Rd/Dandenong Rd (Armadale),-37.8628380671236,145.019643363724
18440,41-Cantala Ave/Dandenong Rd (Armadale),-37.8619663052749,145.01764339165
18441,40-Wattletree Rd/Dandenong Rd (Armadale),-37.8608055030471,145.01453728136
18443,38-Orrong Rd/Dandenong Rd (Armadale),-37.8601678016435,145.010394214552
18444,37-Lansdowne Rd/Dandenong Rd (Prahran),-37.8597465945004,145.007336575257
18445,36-Alexandra St/Dandenong Rd (Prahran),-37.8593632657027,145.004391615141
18446,35-Hotham St/Dandenong Rd (Prahran),-37.8589303887574,145.001186597909
18447,34-Westbury St/Dandenong Rd (St Kilda East),-37.8584149281628,144.997370073074
18448,33-Hornby St/Dandenong Rd (Windsor),-37.8582073168342,144.99576168004
18449,32-Chapel St/Dandenong Rd (Windsor),-37.8575136628861,144.992075097157
18450,112-Casino East/Queens Bridge St (Southbank),-37.8217114589414,144.961224647747
18451,64-East Malvern/Waverley Rd (Malvern East),-37.8773790219904,145.058887370342
18452,63-Hughes St/Waverley Rd (Malvern East),-37.8771029895966,145.056904990124
18453,62-Macgregor St/Waverley Rd (Malvern East),-37.8768732783438,145.055000991536
18454,61-Tennyson St/Waverley Rd (Malvern East),-37.8763758510233,145.051080341313
18455,60-Burke Rd/Waverley Rd (Malvern East),-37.876050844638,145.048326211396
18456,59-Dandenong Rd/Waverley Rd (Caulfield East),-37.8758435792704,145.045068755208
18457,57-Caulfield Railway Station/Derby Rd (Caulfield East),-37.8764035900972,145.041893322014
18459,56-Caulfield Racecourse/Normanby Rd (Caulfield East),-37.8753567990647,145.039101530512
18460,55-Balaclava Rd/Normanby Rd (Caulfield East),-37.8744935892182,145.038135329903
18461,54-Kambrook Rd/Balaclava Rd (Caulfield East),-37.8740274789258,145.0361240518
18462,53-Caulfield Park/Balaclava Rd (Caulfield North),-37.87364387079,145.032041499049
18463,52-Caulfield Park Bowling Club/255 Balaclava Rd (Caulfield North),-37.8731370601585,145.028144174684
18464,51-Hawthorn Rd/Balaclava Rd (Caulfield North),-37.8727950786443,145.024947353926
18465,1-Flinders St/Queens Bridge St (Melbourne City),-37.8194294268531,144.961105678988
18466,2-Flinders Lane/Market St (Melbourne City),-37.8185392236855,144.960698490452
18467,3-William St/Flinders Lane (Melbourne City),-37.8186403872865,144.959775534698
18468,47-Caulfield Junior College/Balaclava Rd (Caulfield North),-37.8721456318408,145.021156259988
18469,4-Collins St/William St (Melbourne City),-37.8178188940335,144.959173353644
18479,50-Wharton St/Whitehorse Rd (Surrey Hills),-37.8141062233734,145.091375899353
18481,22-Dorcas St/Eastern Rd (South Melbourne),-37.8322212391004,144.964991671223
18482,23-Moray St/Park St (South Melbourne),-37.8344724623683,144.96385036257
18483,24-Clarendon St/Park St (South Melbourne),-37.8352034675906,144.961307745501
18484,25-Cecil St/Park St (South Melbourne),-37.835909363288,144.958879398924
18485,41-Maribyrnong Park/Maribyrnong Rd (Ascot Vale),-37.7702967956936,144.902570689436
18486,42-Clyde St/Raleigh Rd (Maribyrnong),-37.7697709971887,144.898351049789
18487,43-Van Ness Ave/Raleigh Rd (Maribyrnong),-37.769504900617,144.89606538041
18488,44-Warrs Rd/Raleigh Rd (Maribyrnong),-37.7690570205018,144.892184195585
18489,45-Maribyrnong Community Centre/Raleigh Rd (Maribyrnong),-37.7687394682599,144.889548112026
18490,46-Rosamond Rd/Raleigh Rd (Maribyrnong),-37.7690029940887,144.887156614938
18491,48-Wests Rd/Raleigh Rd (Maribyrnong),-37.7694027123902,144.883319458799
18492,49-Highpoint Shopping Centre/Wests Rd (Maribyrnong),-37.7732776594471,144.882312054083
18493,50-Williamson Rd/Wests Rd (Maribyrnong),-37.7749300643198,144.881992421634
18494,51-Williamson Rd/Rosamond Rd (Maidstone),-37.7761046027991,144.885671486323
18495,52-River St/Rosamond Rd (Maribyrnong),-37.7788167977633,144.885151401563
18496,53-Maribyrnong College/River St (Maribyrnong),-37.7795454755164,144.888094029505
18497,54-Gordon St/River St (Maribyrnong),-37.7799172509644,144.891239880394
18498,55-Lyric St/Gordon St (Maribyrnong),-37.7819471031421,144.891363856454
18499,56-Edgewater Square/Gordon St (Maribyrnong),-37.7844435616127,144.890872771592
18500,57-Titch St/Gordon St (Footscray),-37.7890059560018,144.890004937851
18501,58-Ballarat Rd/Gordon St (Footscray),-37.7910716900467,144.889616852261
18505,59-Droop St/Ballarat Rd (Footscray),-37.7923129221491,144.893510700869
18506,60-Tiernan St/Droop St (Footscray),-37.794619242815,144.895489330331
18507,61-Geelong Rd/Droop St (Footscray),-37.7961379478799,144.896763591664
18508,62-Nicholson St/Droop St (Footscray),-37.7994223600254,144.899521053882
18509,63-Leeds St/Hopkins St (Footscray),-37.7998527797738,144.900917146808
18510,32-Moonee Ponds/Ascot Vale Rd (Moonee Ponds),-37.7676090070441,144.924828903597
18511,33-Chaucer St/Ascot Vale Rd (Moonee Ponds),-37.7700534023909,144.924442690686
18512,34-Maribyrnong Rd/Ascot Vale Rd (Moonee Ponds),-37.7724521582097,144.924023666149
18513,35-Moore St/Maribyrnong Rd (Moonee Ponds),-37.7723398760765,144.921233975034
18514,36-77 Maribyrnong Rd (Moonee Ponds),-37.7720259586744,144.918256949141
18515,37-Union Rd/Maribyrnong Rd (Moonee Ponds),-37.7718127083505,144.916389704611
18516,38-Ferguson St/Maribyrnong Rd (Ascot Vale),-37.7714149512555,144.912756616321
18517,39-Bowen St/Maribyrnong Rd (Moonee Ponds),-37.7710270975097,144.90918005379
18518,40-Epsom Rd/Maribyrnong Rd (Ascot Vale),-37.770631339518,144.905671869778
18519,37-Maribyrnong Rd/Union Rd (Ascot Vale),-37.7719510032705,144.91605658791
18520,36-St Leonards Rd/Union Rd (Ascot Vale),-37.7737034056827,144.915780317421
18521,35-Munro St/Union Rd (Ascot Vale),-37.7761027229241,144.915395031774
18522,34-Burrowes St/Union Rd (Ascot Vale),-37.7786277370768,144.914983477683
18523,33-Melbourne Showgrounds/Epsom Rd (Ascot Vale),-37.7806785784996,144.914766887171
18524,32-Sandown Rd/Epsom Rd (Ascot Vale),-37.7826678972235,144.916675311185
18525,31-Racing Victoria/400 Epsom Rd (Flemington),-37.7843899590694,144.918250689805
18526,30-Flemington Dr/Epsom Rd (Flemington),-37.785416422181,144.91922112236
18527,29-Flemington Racecourse/Racecourse Rd (Flemington),-37.7874635300894,144.921854902329
18528,28-Smithfield Rd/Racecourse Rd (Flemington),-37.787741336019,144.925344562833
18529,26-Newmarket Plaza/Racecourse Rd (Kensington),-37.7880743053468,144.928389850634
18530,25-Wellington St/Racecourse Rd (Flemington),-37.7884986654671,144.931512106785
18531,24-Collett St/Racecourse Rd (Kensington),-37.7885069098742,144.933521795016
18532,23-Stubbs St/Racecourse Rd (Flemington),-37.7887970773162,144.936193613324
18533,22-Boundary Rd/Racecourse Rd (North Melbourne),-37.7892087048887,144.94014526012
18536,19-Abbotsford St Interchange/Abbotsford St (North Melbourne),-37.7937289752276,144.947162819947
18537,18-Erskine St/Abbotsford St (North Melbourne),-37.795245687754,144.946802851664
18538,17-Canning St/Abbotsford St (North Melbourne),-37.796718944829,144.946534924682
18539,16-Haines St/Abbotsford St (North Melbourne),-37.7986055514148,144.946198751648
18540,15-Arden St/Abbotsford St (North Melbourne),-37.8006719079303,144.945834864528
18541,14-Abbotsford St/Queensberry St (North Melbourne),-37.8026629387849,144.945802414164
18543,22-Royal Park/Royal Park (Parkville),-37.7914042298039,144.949248524847
18544,23-Macarthur Rd/Royal Park (Parkville),-37.7879863445972,144.949626908173
18545,24-State Netball Hockey Centre/Royal Park (Parkville),-37.7843269822604,144.948558500106
18546,25-Melbourne Zoo/Royal Park (Parkville),-37.7824022405542,144.949292995527
18547,26-Royal Park Station/Royal Park (Parkville),-37.7806877779609,144.951236551253
18548,28-Park St/Royal Park (Parkville),-37.7768370186471,144.949526277365
18549,29-Brunswick Rd/Royal Park (Parkville),-37.7758141547678,144.94874843812
18550,30-Union Square Shopping Centre/Grantham St (Brunswick West),-37.7725617539591,144.949315160617
18551,31-Dawson St/Grantham St (Brunswick West),-37.7702981938815,144.949740987485
18552,32-Foden St/Dawson St (Brunswick),-37.769923220037,144.947355935719
18553,33-South Daly St/Dawson St (Brunswick),-37.7695927397685,144.94442475252
18554,34-Smith St/Melville Rd (Brunswick West),-37.7676139610229,144.943094570104
18555,35-Victoria St/Melville Rd (Brunswick West),-37.7649116367302,144.943680279729
18556,36-Hope St/Melville Rd (Brunswick West),-37.7621622898493,144.944153729554
18557,37-Albion St/Melville Rd (Brunswick West),-37.7587395569793,144.944770639309
18558,38-Jacobs Reserve/Melville Rd (Brunswick West),-37.7567636552344,144.945154494117
18559,39-McGregor Ave/Melville Rd (Brunswick West),-37.7547789413948,144.945549920151
18560,40-Moreland Rd/Melville Rd (Brunswick West),-37.753429008046,144.945655363689
18561,41-Woodlands Ave/Melville Rd (Pascoe Vale South),-37.7495120335086,144.946353875236
18562,42-Reynard St/Melville Rd (Pascoe Vale South),-37.7466110572025,144.944334494874
18563,43-Princes Tce/Melville Rd (Pascoe Vale South),-37.7441223188893,144.944766516849
18564,44-Brearley Pde/Melville Rd (Pascoe Vale South),-37.7419658650166,144.945132574678
18566,51-Balwyn Rd/Doncaster Rd (Balwyn North),-37.7946556114184,145.084540166993
18567,50-Dight Ave/Doncaster Rd (Balwyn North),-37.7943716414844,145.08093609335
18568,49-Buchanan Ave/Doncaster Rd (Balwyn North),-37.7939407239154,145.077721981573
18569,48-Osburn Ave/Doncaster Rd (Balwyn North),-37.793411558251,145.074567241659
18570,47-North Balwyn Shopping Centre/Doncaster Rd (Balwyn North),-37.7927110539134,145.070860542084
18571,46-Wattle Ave/Doncaster Rd (Balwyn North),-37.7930057939889,145.067400531095
18573,26-Ferrars St/Park St (South Melbourne),-37.8366324336537,144.956405081017
18574,43-Kew High School/High St (Kew East),-37.7946997048853,145.061348723101
18575,42-Woodlands Ave/High St (Kew East),-37.7963243537073,145.05767204718
18576,41-Station St/High St (Kew East),-37.7979657733298,145.05392662752
18577,40-Harp Village/High St (Kew East),-37.7987211298731,145.052191859392
18578,39-Harp Rd/High St (Kew East),-37.7995635325299,145.050273049413
18579,38-Victoria Park/High St (Kew East),-37.8013159719127,145.046172291303
18580,37-Kew Cemetery/High St (Kew),-37.8025822627256,145.042652069325
18581,36-Gladstone St/High St (Kew),-37.8035208856965,145.040026315203
18582,35-Charles St/High St (Kew),-37.8049070388909,145.036139248929
18583,34-Union St/High St (Kew),-37.8056401273756,145.034166204928
18584,33-Kew Shopping Centre/High St (Kew),-37.8066738452233,145.031310542664
18588,25-Brook St/Church St (Hawthorn),-37.8157558782611,145.020981776621
18589,24-Hill St/Church St (Hawthorn),-37.8179713527851,145.018752819938
18591,65-Victoria St/Church St (Richmond),-37.810725827871,145.000624428984
18592,64-Elizabeth St/Church St (Richmond),-37.8126020718071,145.000198956784
18593,63-Tweedie Pl/Church St (Richmond),-37.8143179106638,144.999880026308
18594,62-Highett St/Church St (Richmond),-37.8159618792704,144.999574379231
18595,61-Bridge Rd/Church St (Richmond),-37.8187291036623,144.999079343986
18596,60-Abinger St/Church St (Richmond),-37.8203015856927,144.998809668777
18597,59-St Ignatius Church/Church St (Richmond),-37.8218380357436,144.99854095401
18598,58-Gipps St/Church St (Richmond),-37.8240575218002,144.998162882355
18599,57-Swan St/Church St (Richmond),-37.8257819706902,144.997820888066
18601,55-Adelaide St/Church St (Cremorne),-37.8289717661683,144.997268832342
18602,54-Balmain St/Church St (Cremorne),-37.8304811858602,144.997000777019
18603,53-Howard St/Church St (Richmond),-37.8327639080419,144.996632255086
18605,51-Malcolm St/Chapel St (South Yarra),-37.8363787897665,144.996170845034
18606,50-Toorak Rd/Chapel St (South Yarra),-37.8396477024784,144.995502842379
18607,49-Arthur St/Chapel St (South Yarra),-37.8419740979446,144.995053486611
18608,48-Cliff St/Chapel St (South Yarra),-37.8438326750752,144.994650864591
18609,47-Commercial Rd/Chapel St (Prahran),-37.8469762393989,144.994031567932
18610,46-Chatham St/Chapel St (Prahran),-37.8490795639633,144.99371317177
18611,45-High St/Chapel St (Prahran),-37.8519559896082,144.993282870626
18612,44-Duke St/Chapel St (Windsor),-37.8541020226167,144.992826879242
18613,43-Windsor Railway Station/Chapel St (Windsor),-37.8562404011776,144.992450628088
18614,42-Dandenong Rd/Chapel St (St Kilda East),-37.85804782274,144.992219728868
18615,41-St Michaels Grammar School/Chapel St (St Kilda),-37.8595288384999,144.991872643897
18616,40-Alma Rd/Chapel St (St Kilda East),-37.8615773288624,144.991510137615
18617,39-Argyle St/Chapel St (St Kilda East),-37.8633922021689,144.991188053912
18618,38-Inkerman St/Chapel St (St Kilda East),-37.8654406880839,144.990825504999
18619,37-Chapel St/Carlisle St (Balaclava),-37.8684449414884,144.990493804966
18620,36-St Kilda Town Hall/Carlisle St (Balaclava),-37.8682260874923,144.988760475647
18621,37-Carlisle St/Chapel St (St Kilda),-37.8684860988656,144.990265329657
18622,36-Brighton Rd/Chapel St (St Kilda),-37.8710911053709,144.989773915157
18623,35-St Kilda Rd/Carlisle St (St Kilda),-37.8679634037222,144.986573639175
18624,34-Greeves St/Carlisle St (St Kilda),-37.8675943964645,144.983969111242
18625,33-Barkly St/Carlisle St (St Kilda),-37.8671137342759,144.981163040226
18632,38-Balaclava Station/Carlisle St (Balaclava),-37.8688184558586,144.993371105423
18633,39-Orange Gr/Carlisle St (Balaclava),-37.8692452560559,144.99673581573
18634,40-Hotham St/Carlisle St (Balaclava),-37.8696098050265,144.99962479199
18635,41-Empress Rd/Balaclava Rd (Caulfield North),-37.8699844485425,145.002581733944
18636,42-Sidwell Ave/Balaclava Rd (Caulfield North),-37.8703417735513,145.005584646829
18637,43-Orrong Rd/Balaclava Rd (Caulfield North),-37.8707475215928,145.008790914384
18638,44-Ontario St/Balaclava Rd (Caulfield North),-37.8711863477948,145.01236011527
18639,45-Kent Gr/Balaclava Rd (Caulfield North),-37.8715482176255,145.015112902405
18640,46-Kooyong Rd/Balaclava Rd (Caulfield North),-37.8718935393964,145.017957108502
18641,47-Elmhurst Rd/Balaclava Rd (Caulfield North),-37.8722991449902,145.021174889251
18645,51-Hawthorn Rd/Balaclava Rd (Caulfield North),-37.8725701199186,145.024430409025
18646,52-Caulfield Park Bowling Club/Balaclava Rd (Caulfield North),-37.8731076922396,145.028542859834
18647,53-Caulfield Park/Balaclava Rd (Caulfield North),-37.8734978463305,145.031931698093
18648,54-Kambrook Rd/Balaclava Rd (Caulfield North),-37.8739870860995,145.035863642607
18649,55-Normanby Rd/Balaclava Rd (Caulfield North),-37.8741994668254,145.037790699797
18650,56-Caulfield Racecourse/Normanby Rd (Caulfield North),-37.8754882094938,145.039416378159
18651,57-Caulfield Railway Station/Derby Rd (Caulfield East),-37.8764176348162,145.04165419767
18652,58-Dandenong Rd/Derby Rd (Caulfield North),-37.875709232126,145.041866233101
18653,59-Dandenong Rd/Waverley Rd (Malvern East),-37.8757604322551,145.044945893703
18654,60-Burke Rd/Waverley Rd (Malvern East),-37.8758929994769,145.048046150235
18655,61-Tennyson St/Waverley Rd (Malvern East),-37.8762472943628,145.050935930707
18656,62-The Avenue/Waverley Rd (Malvern East),-37.8766968693218,145.054687293494
18657,63-Oak Gr/Waverley Rd (Malvern East),-37.8769168269563,145.056546065791
18658,27-Park St/Montague St (South Melbourne),-37.8375219260146,144.954176103245
18659,28-Montague St/Bridport St (Albert Park),-37.8407318534867,144.955314666796
18660,29-Bridport St/Victoria Ave (Albert Park),-37.841562613708,144.953337174597
18661,30-Richardson St/Victoria Ave (Albert Park),-37.8439420130259,144.951282689199
18662,31-Little Page St/Victoria Ave (Albert Park),-37.8456739260603,144.949825585401
18663,32-Beaconsfield Pde/Victoria Ave (Albert Park),-37.8472035988203,144.948658130219
18665,21-Dallas Brooks Dr/Domain Rd (Melbourne City),-37.8331625474501,144.974635197061
18666,22-Melbourne Grammar/Domain Rd (Melbourne City),-37.8335667495769,144.977703369384
18667,23-Hope St/Domain Rd (Melbourne City),-37.8337961155769,144.979515105933
18668,24-Domain Rd/Park St (South Yarra),-37.8343415879872,144.982420408475
18669,25-Randall Pl/Park St (South Yarra),-37.8359666988041,144.982069333847
18670,26-Park St/Toorak Rd (South Yarra),-37.837841631252,144.982097778927
18699,27-Walsh St/Toorak Rd (South Yarra),-37.8381523284821,144.984452852524
18700,28-Punt Rd/Toorak Rd (South Yarra),-37.8384079625346,144.986752627732
18702,29-Myrtle St/Toorak Rd (South Yarra),-37.8387884104665,144.98950356115
18703,30-South Yarra Railway Station/Toorak Rd (South Yarra),-37.8391312147623,144.992164637961
18704,31-Chapel St/Toorak Rd (South Yarra),-37.8395810562601,144.995822822449
18705,32-Surrey Rd/Toorak Rd (South Yarra),-37.8399268089054,144.998665695402
18706,33-Como Ave/Toorak Rd (South Yarra),-37.8403676355712,145.002335568977
18707,34-Williams Rd/Toorak Rd (Toorak),-37.8407253195977,145.005360001571
18708,35-Toorak Village/Toorak Rd (Toorak),-37.8410930873367,145.008452375512
18709,36-Canterbury Rd/Toorak Rd (Toorak),-37.8413865910972,145.010887680221
18710,43-Deepdene Shopping Centre/Whitehorse Rd (Balwyn),-37.810925108296,145.064877385056
18711,119-Park St/Lygon St (Carlton North),-37.7794166855291,144.970471478009
18712,120-Brunswick Rd/Lygon St (Brunswick),-37.7784552218912,144.970634023429
18713,121-Weston St/Lygon St (Brunswick East),-37.7756673701804,144.970971395206
18714,122-Glenlyon Rd/Lygon St (Brunswick East),-37.7727371530876,144.971414806367
18715,123-Albert St/Lygon St (Brunswick East),-37.7697814721266,144.971949694329
18716,124-Victoria St/Lygon St (Brunswick East),-37.7682002377212,144.972231297201
18717,125-Blyth St/Lygon St (Brunswick East),-37.7666640399032,144.972511656487
18718,126-Stewart St/Lygon St (Brunswick East),-37.7644268095219,144.972901960097
18719,127-Albion St/Lygon St (Brunswick East),-37.7623693382011,144.973264627086
18720,128-Mitchell St/Holmes St (Brunswick East),-37.7593867796512,144.97433358207
18721,129-Moreland Rd/Holmes St (Brunswick),-37.7568796991961,144.97475384338
18722,130-Barrow St/Moreland Rd (Coburg),-37.7562057262216,144.970152531972
18723,131-De Carle St/Moreland Rd (Coburg),-37.7558096407211,144.966519839367
18724,132-Sydney Rd/Moreland Rd (Coburg),-37.7555636714937,144.964279178773
18725,133-Cameron St/Moreland Rd (Coburg),-37.7552604943093,144.96238061662
18726,130-The Avenue/Nicholson St (Coburg),-37.7535657870281,144.97594518235
18727,131-Rennie St/Nicholson St (Coburg),-37.7513404661018,144.976505218934
18728,132-Crozier St/Nicholson St (Coburg),-37.7494176998527,144.97684133757
18729,133-Harding St/Nicholson St (Coburg),-37.7463707271719,144.977310189942
18730,134-Merribell Ave/Nicholson St (Coburg),-37.7443592421329,144.977728115883
18732,44-Deepdene Park/Whitehorse Rd (Balwyn),-37.8113749003625,145.068670976708
18733,45-Hardwicke St/Whitehorse Rd (Balwyn),-37.8117503612957,145.071784993009
18734,46-Balwyn Cinema/Whitehorse Rd (Balwyn),-37.8122417172543,145.075929733415
18735,47-Balwyn Rd/Whitehorse Rd (Balwyn),-37.8129187627056,145.081523733038
18736,48-Balwyn Shopping Centre/Whitehorse Rd (Balwyn),-37.8131989588042,145.083788383112
18737,49-Northcote Ave/Whitehorse Rd (Balwyn),-37.8136902651144,145.08795601163
18738,51-Grovedale Rd/Whitehorse Rd (Mont Albert),-37.8145641781838,145.095169619074
18781,37-Orrong Rd/Toorak Rd (Toorak),-37.8417655222305,145.014116177711
18782,38-Woorigoleen Rd/Toorak Rd (Toorak),-37.8421663982763,145.017582763006
18783,39-Irving Rd/Toorak Rd (Toorak),-37.8424608612974,145.020086300228
18784,40-Kooyong Rd/Toorak Rd (Toorak),-37.8428443540725,145.023064766889
18785,41-Macquarie Rd/Toorak Rd (Toorak),-37.8432312005512,145.026247728843
18786,42-Hopetoun Rd/Toorak Rd (Toorak),-37.8437451768981,145.031109231012
18787,43-Glenferrie Rd/Toorak Rd (Toorak),-37.8438001736253,145.031164588957
18789,112-Lygon St/Elgin St (Carlton),-37.7971308272866,144.967158888187
18790,113-Lytton St/Lygon St (Carlton),-37.7941268220099,144.968024826118
18791,114-Princes St/Lygon St (Carlton North),-37.7926891413479,144.968268627873
18792,115-Melbourne Cemetery/Lygon St (Carlton North),-37.7895801678143,144.968796663836
18793,116-Fenwick St/Lygon St (Carlton North),-37.7873699872702,144.969186491288
18794,117-Richardson St/Lygon St (Carlton North),-37.7840360114659,144.96973195313
18795,118-Pigdon St/Lygon St (Carlton North),-37.7819241250514,144.970073608606
18899,26-Alfred Hospital/Commercial Rd (South Yarra),-37.8453070779343,144.982314764998
18918,27-Punt Rd/Commercial Rd (South Yarra),-37.8456206941525,144.984840461375
18923,28-Braille Library/Commercial Rd (South Yarra),-37.8458990033367,144.987412597577
18931,29-Porter St/Commercial Rd (South Yarra),-37.8463228427115,144.990594482385
18933,30-Prahran Market/Commercial Rd (South Yarra),-37.8465412686013,144.992304589595
18934,31-Chapel St/Commercial Rd (South Yarra),-37.8467596699168,144.994014707992
18935,32-Surrey Rd/Malvern Rd (South Yarra),-37.8472928514781,144.99780740089
18936,33-Francis St/Malvern Rd (South Yarra),-37.8476331617318,145.000332515241
18937,34-Williams Rd/Malvern Rd (South Yarra),-37.8480217328288,145.003049551944
18938,35-Mathoura Rd/Malvern Rd (Toorak),-37.8484798725093,145.006685293031
18939,36-A'Beckett St/Malvern Rd (Toorak),-37.8489332925522,145.010048450768
18940,37-Orrong Rd/Malvern Rd (Toorak),-37.849192841682,145.012075793724
18941,38-Clendon Rd/Malvern Rd (Toorak),-37.8496177456554,145.015360229143
18942,39-Irving Rd/Malvern Rd (Toorak),-37.8500509930704,145.018610385269
18943,40-Kooyong Rd/Malvern Rd (Toorak),-37.8504121239255,145.02132834743
18944,41-Albany Rd/Malvern Rd (Toorak),-37.8507626593866,145.023955698564
18945,42-Lauriston Girls School/Malvern Rd (Toorak),-37.8510712013232,145.02623187293
18946,43-Glenferrie Rd/Malvern Rd (Toorak),-37.8515017994563,145.029880017961
18947,44-Plant St/Malvern Rd (Malvern),-37.8518969952352,145.032494898837
18948,45-Elizabeth St/Malvern Rd (Malvern),-37.8522689026343,145.035337735644
18949,46-Meredith St/Malvern Rd (Malvern),-37.8527844554484,145.039233787824
18950,47-Tooronga Rd/Malvern Rd (Malvern),-37.8531276665754,145.041986529882
18951,48-Edgar St/Malvern Rd (Malvern),-37.8535564610772,145.045555364264
18952,49-Kenilworth Gr/Malvern Rd (Malvern),-37.8538997142417,145.048319531444
18953,50-Glenarm Rd/Malvern Rd (Malvern),-37.8543217372122,145.051490818937
18954,51-Gardiner Railway Station/Burke Rd (Hawthorn East),-37.8527193026014,145.052680929251
18955,52-Harris Ave/Burke Rd (Hawthorn East),-37.8497787894452,145.05306515441
18956,53-Faircroft Ave/Burke Rd (Hawthorn East),-37.8481710692012,145.053391564653
18957,54-Toorak Rd/Burke Rd (Glen Iris),-37.8457999273931,145.053874405179
18958,55-Middle Rd/Burke Rd (Hawthorn East),-37.84380561297,145.054256394426
18959,56-Anderson Rd/Burke Rd (Hawthorn East),-37.8418561480719,145.054625818386
18960,57-Pine Ave/Burke Rd (Hawthorn East),-37.8402572398361,145.054940557117
18961,58-Leura Gr/Burke Rd (Hawthorn East),-37.8381732144093,145.055347565207
18962,59-Pleasant Rd/Burke Rd (Hawthorn East),-37.8354060825543,145.055863385909
18963,60-Campbell Rd/Burke Rd (Hawthorn East),-37.8337170883145,145.056180428921
18964,61-Camberwell Junction/Burke Rd (Hawthorn East),-37.8315968351509,145.056576946402
18965,62-Camberwell Shopping Centre/755 Burke Rd (Hawthorn East),-37.8302039752474,145.056818011573
18966,63-Prospect Hill Rd/Burke Rd (Hawthorn East),-37.8282190246637,145.057222300586
18967,64-Camberwell Station/Burke Rd (Hawthorn East),-37.8260539119694,145.057631289595
18968,65-Victoria Rd/Burke Rd (Hawthorn East),-37.8235838361706,145.058127773375
18969,66-Rathmines Rd/Burke Rd (Hawthorn East),-37.8214812114633,145.058500984695
18970,67-Camberwell Girls Grammar/Burke Rd (Hawthorn East),-37.8185885015942,145.059053914387
18971,68-Mont Albert Rd/Burke Rd (Kew),-37.8159921150324,145.059542237365
18972,69-Sackville St/Burke Rd (Kew),-37.8141417052837,145.059908758234
18973,36-St Kilda Primary School/Brighton Rd (Balaclava),-37.8701130088566,144.988436328519
18974,37-Chapel St/Brighton Rd (Balaclava),-37.8717712137222,144.9894939561
18975,38-Brunning St/Brighton Rd (Balaclava),-37.8728003223372,144.99012535189
18976,39-Glen Eira Rd/Brighton Rd (Balaclava),-37.8766355539487,144.992545048148
18977,40-Scott St/Brighton Rd (Balaclava),-37.8788858028649,144.993973350568
18978,41-Coleridge St/Brighton Rd (Balaclava),-37.8807984975037,144.995160755396
18979,42-Hotham St/Brighton Rd (Balaclava),-37.8829570942457,144.996500736004
18980,43-Brighton Rd/Glenhuntly Rd (Elsternwick),-37.8837999932087,144.997842317854
18981,44-Elsternwick Railway Station/Glenhuntly Rd (Elsternwick),-37.8841495365849,145.000379793258
18982,45-Elsternwick Shopping Centre/Glenhuntly Rd (Elsternwick),-37.8846133431989,145.003812464922
18983,46-Orrong Rd/Glenhuntly Rd (Elsternwick),-37.8848617063519,145.005704614646
18984,47-Shoobra Rd/Glenhuntly Rd (Elsternwick),-37.8852711213874,145.009127449903
18985,48-Parkside St/Glenhuntly Rd (Elsternwick),-37.8856486158273,145.012266919693
18986,49-Kooyong Rd/Glenhuntly Rd (Elsternwick),-37.8859629714179,145.014873700607
18987,50-Royal Pde/Glenhuntly Rd (Caulfield),-37.8863907119633,145.018330262858
19000,67-Rogers Ave/Hawthorn Rd (Brighton East),-37.9110783802287,145.017531485414
19001,66-Union St/Hawthorn Rd (Brighton East),-37.9085173350306,145.017964201952
19002,65-Davey Ave/Hawthorn Rd (Brighton East),-37.9063696804094,145.018328925216
19003,64-Taylor St/Hawthorn Rd (Brighton East),-37.9037823715748,145.018807776984
19004,63-North Rd/Hawthorn Rd (Brighton East),-37.9011958242427,145.019332062502
19005,62-Gardenvale Rd/Hawthorn Rd (Caulfield South),-37.8989688136359,145.019801180754
19006,61-Stone St/Hawthorn Rd (Caulfield South),-37.8965522561046,145.020252601934
19007,60-Dover St/Hawthorn Rd (Caulfield South),-37.8948810372046,145.020547561835
19008,59-Princes Park/Hawthorn Rd (Caulfield South),-37.8930396268418,145.020903923296
19009,58-Sycamore St/Hawthorn Rd (Caulfield South),-37.889608059418,145.021553005294
19010,57-Glenhuntly Rd/Hawthorn Rd (Caulfield),-37.8866613719395,145.022098079945
19011,56-Briggs St/Hawthorn Rd (Caulfield),-37.8848739984463,145.022452908361
19012,55-Sylverly Gr/Hawthorn Rd (Caulfield North),-37.8824486037094,145.022915742565
19013,54-Glen Eira Rd/Hawthorn Rd (Caulfield North),-37.8799335100487,145.023403680338
19014,53-Northcote Ave/Hawthorn Rd (Caulfield North),-37.8772116166328,145.023919846525
19015,52-Halstead St/Hawthorn Rd (Caulfield North),-37.8749389601979,145.024355754896
19016,51-Balaclava Rd/Hawthorn Rd (Caulfield North),-37.8723686641688,145.02477684603
19017,50-Inkerman Rd/Hawthorn Rd (Caulfield North),-37.8695135490105,145.025410134126
19018,49-Arthur St/Hawthorn Rd (Caulfield North),-37.8677259655023,145.025753419514
19019,48-Hawthorn Rd/Dandenong Rd (Caulfield North),-37.8654293726797,145.025837450533
19023,44-Bailey Ave/Dandenong Rd (Armadale),-37.8645577124924,145.023837332042
19024,43-Egerton Rd/Dandenong Rd (Armadale),-37.863788732535,145.022050491669
19025,42-Kooyong Rd/Dandenong Rd (Armadale),-37.8625979398503,145.019297414817
19026,41-Cantala Ave/Dandenong Rd (Armadale),-37.8619227975846,145.017735492601
19027,40-Wattletree Rd/Dandenong Rd (Armadale),-37.8607826960803,145.014787961065
19028,38-Orrong Rd/Dandenong Rd (Prahran),-37.8603079096048,145.010685979158
19029,37-Lansdowne Rd/Dandenong Rd (St Kilda East),-37.8598259322183,145.00723213949
19030,36-Closeburn Ave/Dandenong Rd (St Kilda East),-37.8594142293542,145.004208376799
19031,35-Williams Rd/Dandenong Rd (St Kilda East),-37.8590440748023,145.001513152834
19032,34-The Avenue/Dandenong Rd (Windsor),-37.8585059706294,144.997424440524
19033,33-Hornby St/Dandenong Rd (Windsor),-37.8582791840959,144.995748367
19034,32-Chapel St/Dandenong Rd (Windsor),-37.8577548360831,144.992477735793
19035,31-Queens Way/Queens Way (Windsor),-37.8562458912144,144.98749491584
19036,70-Cotham Rd/Burke Rd (Kew),-37.8108727029096,145.060596362879
19037,69-Peverill St/Burke Rd (Balwyn),-37.8141082922772,145.060068667587
19038,68-Mont Albert Rd/Burke Rd (Camberwell),-37.8157792910342,145.059752287933
19039,67-Camberwell Girls Grammar/Burke Rd (Canterbury),-37.8184920340826,145.059215485336
19040,66-Canterbury Rd/Burke Rd (Camberwell),-37.8213044219719,145.058710110332
19041,65-Victoria Rd/Burke Rd (Camberwell),-37.8234336969936,145.058313485492
19042,64-Camberwell Station/Burke Rd (Camberwell),-37.8259670169964,145.057826712416
19043,63-Prospect Hill Rd/Burke Rd (Camberwell),-37.8279703618509,145.057444695624
19044,61-Camberwell Junction/Burke Rd (Camberwell),-37.8310875054623,145.056840279961
19045,60-Reserve Rd/Burke Rd (Camberwell),-37.833890489659,145.056312229314
19046,59-Seymour Gr/Burke Rd (Camberwell),-37.8351932675872,145.056073504272
19047,58-Currajong Ave/Burke Rd (Camberwell),-37.8380859491444,145.055520306426
19048,57-Pine Ave/Burke Rd (Camberwell),-37.8400622553655,145.055138860544
19049,56-Anderson Rd/Burke Rd (Camberwell),-37.8415894762022,145.054848738236
19050,55-Middle Rd/Burke Rd (Camberwell),-37.8436556697286,145.054453525864
19051,54-Toorak Rd/Burke Rd (Camberwell),-37.8456141410776,145.054083849542
19052,53-Howitt St/Burke Rd (Glen Iris),-37.8478775646524,145.053626579329
19053,52-Bickleigh St/Burke Rd (Glen Iris),-37.8498805068522,145.053221590132
19054,51-Gardiner Station/Burke Rd (Glen Iris),-37.8529623281582,145.052663168923
19055,51A-Malvern Rd/Burke Rd (Glen Iris),-37.8544968530122,145.05227044874
19056,50-Glenarm Rd/Malvern Rd (Glen Iris),-37.8544176269028,145.051295075595
19057,49-Belmont Ave/Malvern Rd (Glen Iris),-37.8540455356013,145.048417977268
19058,48-Edgar St/Malvern Rd (Glen Iris),-37.8537323259949,145.045834861624
19059,47-Tooronga Rd/Malvern Rd (Glen Iris),-37.8533125475537,145.042265778513
19060,46-Shaftesbury Ave/Malvern Rd (Malvern),-37.8528587127272,145.038822661161
19061,45-Elizabeth St/Malvern Rd (Malvern),-37.8524145445228,145.035424792945
19062,44-Plant St/Malvern Rd (Malvern),-37.8520837964988,145.032887721824
19063,43-Glenferrie Rd/Malvern Rd (Malvern),-37.8517234997743,145.030203711226
19064,42-Lauriston Girls School/Malvern Rd (Armadale),-37.8511900166106,145.026330991536
19065,41-Murray St/Malvern Rd (Malvern),-37.8508791880938,145.023918491684
19066,40-Kooyong Rd/Malvern Rd (Toorak),-37.8505694562693,145.02157417453
19067,39-Densham Rd/Malvern Rd (Toorak),-37.8501560262181,145.01842573207
19068,38-Clendon Rd/Malvern Rd (Toorak),-37.8497932969835,145.015616917301
19069,37-Orrong Rd/Malvern Rd (Toorak),-37.8493797093464,145.012468548068
19070,51-Hawthorn Rd/Glenhuntly Rd (Caulfield),-37.8868089622081,145.021764379373
19071,52-Jasmine St/Glenhuntly Rd (Caulfield),-37.8871099036219,145.024121446577
19072,53-Glenhuntly Tram Depot/Glenhuntly Rd (Caulfield),-37.8874703719531,145.026806698686
19073,54-Bambra Rd/Glenhuntly Rd (Caulfield),-37.8876731402891,145.028688850249
19074,55-Fallon St/Glenhuntly Rd (Caulfield),-37.8879306860723,145.030615036731
19075,56-Kambrook Rd/Glenhuntly Rd (Caulfield),-37.888251367423,145.033085363075
19076,57-Clarke Ave/Glenhuntly Rd (Caulfield East),-37.8885015423821,145.035114116219
19077,58-Booran Rd/Glenhuntly Rd (Caulfield East),-37.8887943487784,145.037539738627
19078,60-Glenhuntly Shops/Glenhuntly Rd (Caulfield East),-37.8892495133431,145.040518261047
19079,61-Glenhuntly Railway Station/Glenhuntly Rd (Caulfield South),-37.8893073028593,145.041824410744
19081,62-Grange Rd/Glenhuntly Rd (Caulfield East),-37.8896326624567,145.044590363135
19082,63-Maroona Rd/Glenhuntly Rd (Carnegie),-37.8899382445042,145.047254522219
19083,64-Mernda Ave/Glenhuntly Rd (Carnegie),-37.8902366082343,145.049486785265
19084,65-Mimosa Rd/Glenhuntly Rd (Carnegie),-37.89051747896,145.051753642235
19085,66-Truganini Rd/Glenhuntly Rd (Carnegie),-37.8907810426151,145.054066458455
19086,67-Centre Rd/Truganini Rd (Carnegie),-37.8926535626683,145.054494762706
19087,64-Baker St/Church St (Richmond),-37.8122544356332,145.000424162543
19088,63-Kent St/Church St (Richmond),-37.8143296183798,145.00003874401
19089,62-Highett St/Church St (Richmond),-37.8157489742399,144.999773242649
19090,61-Bridge Rd/Church St (Richmond),-37.8184263160561,144.999292003764
19091,60-Abinger St/Church St (Richmond),-37.8203221098826,144.998956800493
19092,59-St Ignatius Church/Church St (Richmond),-37.8217418467741,144.998713962808
19093,58-Gipps St/Church St (Richmond),-37.8237273275682,144.998353580674
19094,57-Swan St/Church St (Richmond),-37.8255512476355,144.998031626954
19095,56-East Richmond Railway Station/Church St (Richmond),-37.8266106744863,144.997798488981
19096,55-Gibbons St/Church St (Richmond),-37.8287676811336,144.997456138762
19097,54-Cotter St/Church St (Richmond),-37.8303671778324,144.997185652362
19098,53-Howard St/Church St (Richmond),-37.832721382157,144.996781116241
19100,51-Malcolm St/Chapel St (South Yarra),-37.8363636741907,144.996341697965
19101,50-Toorak Rd/Chapel St (South Yarra),-37.8393460847025,144.995783729323
19102,49-Palermo St/Chapel St (South Yarra),-37.8419317681062,144.995213725887
19103,48-Wilson St/Chapel St (South Yarra),-37.8436385709534,144.994894767515
19104,47-Malvern Rd/Chapel St (South Yarra),-37.8467006815103,144.994254961325
19105,46-Chatham St/Chapel St (Prahran),-37.8489479348957,144.993921307202
19106,45-High St/Chapel St (Prahran),-37.8517252781567,144.993493701506
19107,44-Duke St/Chapel St (Prahran),-37.8539886045272,144.993045902503
19108,43-Windsor Railway Station/Chapel St (Prahran),-37.8561265965348,144.992646936971
19109,42-Dandenong Rd/Chapel St (Prahran),-37.8574740511715,144.992394424691
19110,41-St Michaels Grammar School/Chapel St (St Kilda East),-37.8593791986983,144.99208130161
19111,40-Alma Rd/Chapel St (St Kilda East),-37.8613738384193,144.991731630607
19112,39-Argyle St/Chapel St (St Kilda East),-37.8633236320411,144.991394523042
19113,38-Inkerman St/Chapel St (St Kilda East),-37.865200975286,144.991036628318
19115,36-St Kilda Town Hall/Carlisle St (St Kilda),-37.8680896152302,144.988684612135
19116,37-Carlisle St/Chapel St (St Kilda),-37.8682103573071,144.990477442805
19118,35-Brighton Rd/Carlisle St (St Kilda),-37.8681177551491,144.987694848837
19119,34-Mitchell St/Carlisle St (St Kilda),-37.8674778827223,144.98400639009
19123,36-Canterbury Rd/Malvern Rd (Toorak),-37.8489480230775,145.009320702226
19124,35-Lorne Rd/Malvern Rd (Toorak),-37.8485937018916,145.006489025512
19125,34-Williams Rd/Malvern Rd (Toorak),-37.8481900365305,145.003408683336
19126,33-Hobson St/Malvern Rd (South Yarra),-37.8478814439293,145.001155430987
19127,32-Bendigo St/Malvern Rd (Prahran),-37.8474500381489,144.998041806299
19128,31-Chapel St/Malvern Rd (Prahran),-37.8469444673238,144.994282449027
19129,30-Prahran Market/Commercial Rd (Prahran),-37.8467055362402,144.992425143675
19130,29-Porter St/Commercial Rd (Prahran),-37.8465141347294,144.990714298727
19131,28-Braille Library/Commercial Rd (Prahran),-37.8460726716166,144.987555612942
19132,27-Punt Rd/Commercial Rd (Prahran),-37.8457702592013,144.98515459154
19133,26-Alfred Hospital/Commercial Rd (Prahran),-37.8453611231437,144.982313291873
19135,33-Barkly St/Carlisle St (St Kilda),-37.8670859321794,144.981118328573
19136,32-Havelock St/Carlisle St (St Kilda),-37.8670424411352,144.978584537723
19250,13-Curzon St/Queensberry St (North Melbourne),-37.8028264503029,144.947944487139
19251,12-North Melbourne Town Hall/Queensberry St (North Melbourne),-37.8029870715493,144.949405186951
19253,14-Royal Melbourne Hospital/Flemington Rd (Parkville),-37.799477670736,144.954885554567
19254,16-Gatehouse St/Flemington Rd (Parkville),-37.7964191252064,144.951051841914
19256,19-Royal Childrens Hospital/Flemington Rd (North Melbourne),-37.7939313850827,144.947918091027
19259,22-Boundary Rd/Flemington Rd (North Melbourne),-37.7884039178711,144.941019269566
19260,23-Flemington Community Centre/Mt Alexander Rd (Flemington),-37.7858112788766,144.939115450293
19261,24-Mooltan St/Mt Alexander Rd (Flemington),-37.7839358226832,144.936998788049
19262,25-Mount Alexander College/Mt Alexander Rd (Flemington),-37.7824403340757,144.933940582442
19263,26-Wellington St/Mt Alexander Rd (Flemington),-37.7811195768539,144.932626195249
19264,27-Essendon Tram Depot/Mt Alexander Rd (Ascot Vale),-37.7794000907859,144.931186721959
19265,28-Middle St/Mt Alexander Rd (Ascot Vale),-37.7774928306141,144.929832029181
19266,29-Warrick St/Mt Alexander Rd (Ascot Vale),-37.7755415174967,144.92853540122
19267,30-Ormond Rd/Mt Alexander Rd (Moonee Ponds),-37.7724308622285,144.92690792229
19268,31-Montgomery St/Mt Alexander Rd (Moonee Ponds),-37.7705985972096,144.926232526283
19269,33-Moonee Ponds Junction/Pascoe Vale Rd (Moonee Ponds),-37.7669346565411,144.924915868236
19270,34-Moonee Valley Civic Centre/Pascoe Vale Rd (Moonee Ponds),-37.7644197974179,144.925394827835
19271,35-Queens Park/Pascoe Vale Rd (Moonee Ponds),-37.7625432571917,144.925787809727
19272,36-Salisbury St/Pascoe Vale Rd (Moonee Ponds),-37.7597403555717,144.926286100141
19274,38-Pascoe Vale Rd/Fletcher St (Essendon),-37.7558139684481,144.925930378124
19275,39-Hoddle St/Fletcher St (Essendon),-37.7554697654156,144.922761880627
19276,40-Nicholson St/Fletcher St (Essendon),-37.7551723240819,144.920205022545
19277,41-Fletcher St/Napier St (Essendon),-37.7549280695583,144.917601293409
19278,8-Cremorne St/Swan St (Richmond),-37.8249116839921,144.990641432458
19279,9-Lennox St/Swan St (Richmond),-37.8252395307078,144.993484203375
19280,10-Swan Street Shopping Centre/Swan St (Richmond),-37.8255364211463,144.996100612715
19281,11-Church St/Swan St (Richmond),-37.8257595821838,144.998094164396
19282,12-Coppin St/Swan St (Richmond),-37.8262593203488,145.002579765766
19283,13-Edinburgh St/Swan St (Burnley),-37.8265059691803,145.004902206985
19294,14-Burnley St/Swan St (Burnley),-37.82679090989,145.007359972022
19295,15-Stawell St/Swan St (Burnley),-37.8270482007541,145.009784415187
19296,16-Park Gr/Swan St (Burnley),-37.8272621245369,145.011778300751
19297,17-Madden Gr/Swan St (Burnley),-37.8274681084497,145.016510555016
19298,18-Eastern Dr/Swan St (Burnley),-37.8265525484599,145.021011485331
19299,29-Power St/Riversdale Rd (Hawthorn),-37.8275575696443,145.025586090591
19300,30-Through St/Riversdale Rd (Hawthorn),-37.8282106910558,145.029068093197
19301,31-Fordholm Rd/Riversdale Rd (Hawthorn),-37.8285058478914,145.031628001106
19302,32-Glenferrie Rd/Riversdale Rd (Hawthorn),-37.8288417211857,145.034470895645
19303,33-Berkeley St/Riversdale Rd (Hawthorn),-37.8291585641638,145.037257511958
19304,125-Port Junction/79 Whiteman St (Southbank),-37.8260762782771,144.956207808001
19305,22-Dorcas St/Eastern Rd (South Melbourne),-37.8321785574284,144.965129190789
19306,23-Moray St/Park St (South Melbourne),-37.8345081265159,144.964349335667
19307,24-Clarendon St/Park St (South Melbourne),-37.8352234872159,144.961943504985
19308,25-Cecil St/Park St (South Melbourne),-37.835945639308,144.959412450431
19309,26-Ferrars St/Park St (South Melbourne),-37.8368284889564,144.956797372558
19310,27-Montague St/Park St (South Melbourne),-37.8373286974336,144.954465517126
19311,28-Bridport St/Montague St (Albert Park),-37.8404234988117,144.955720904527
19312,29-Merton St/Dundas Pl (Albert Park),-37.8412562405449,144.953857006438
19313,30-Richardson St/Victoria Ave (Albert Park),-37.8437867986455,144.951684724392
19314,31-Graham St/Victoria Ave (Albert Park),-37.8457673625523,144.950016190422
19316,21-Dallas Brooks Dr/Domain Rd (Melbourne City),-37.8330248947294,144.974491250843
19317,22-Melbourne Grammar/Domain Rd (Melbourne City),-37.8334375226482,144.977525099198
19318,23-Hope St/Domain Rd (Melbourne City),-37.833688220045,144.979529412203
19319,24-Birdwood Ave/Domain Rd (Melbourne City),-37.834069998936,144.982348270024
19320,25-Randall Pl/Park St (South Yarra),-37.8359425962058,144.982240433224
19321,26-Toorak Rd/Park St (South Yarra),-37.8375504694528,144.981935267597
19322,27-Walsh St/Toorak Rd (South Yarra),-37.8380087909208,144.984490849261
19323,28-Punt Rd/Toorak Rd (South Yarra),-37.838248811999,144.986404695932
19324,29-Myrtle St/Toorak Rd (South Yarra),-37.8386235582189,144.989348951814
19325,30-South Yarra Railway Station/Toorak Rd (South Yarra),-37.8389857371292,144.99208903976
19326,31-Chapel St/Toorak Rd (South Yarra),-37.8394041100282,144.995486710428
19327,32-Tivoli Rd/Toorak Rd (South Yarra),-37.8397705894935,144.998488102886
19328,33-Como Ave/Toorak Rd (South Yarra),-37.8402085299507,145.001987592576
19329,34-Williams Rd/Toorak Rd (South Yarra),-37.8405138691391,145.004581611353
19330,35-Toorak Village/Toorak Rd (Toorak),-37.8409650581325,145.008342182917
19331,36-Grange Rd/Toorak Rd (Toorak),-37.841228277951,145.01058511377
19332,37-Orrong Rd/Toorak Rd (Toorak),-37.841614883358,145.013733850464
19333,38-Woorigoleen Rd/Toorak Rd (Toorak),-37.8420395248757,145.017540704992
19334,39-Irving Rd/Toorak Rd (Toorak),-37.8423412769874,145.019941767851
19335,40-Kooyong Rd/Toorak Rd (Toorak),-37.8426870252758,145.022818961415
19336,41-Moonga Rd/Toorak Rd (Toorak),-37.8431665649573,145.026692649002
19337,42-Power Ave/Toorak Rd (Toorak),-37.8434382562115,145.028924128168
19338,43-Glenferrie Rd/Toorak Rd (Toorak),-37.8437451768981,145.031109231012
19340,112-Elgin St/Lygon St (Carlton),-37.7969767246703,144.967628742839
19341,113-Lytton St/Lygon St (Carlton),-37.7941375921454,144.968126738585
19342,114-Princes St/Lygon St (Carlton North),-37.7921247993789,144.968465785209
19343,115-Melbourne Cemetery/Lygon St (Carlton North),-37.7892854635189,144.96895235769
19344,116-Fenwick St/Lygon St (Carlton North),-37.7872008008199,144.969304676493
19345,117-Richardson St/Lygon St (Carlton North),-37.7840826143543,144.969821516627
19346,118-Pigdon St/Lygon St (Carlton North),-37.7815393424465,144.970231744247
19347,119-Park St/Lygon St (Carlton North),-37.7798856657998,144.970492712898
19348,120-Brunswick Rd/Lygon St (Brunswick),-37.7781152803797,144.970779567753
19349,121-Weston St/Lygon St (Brunswick East),-37.7755528128604,144.971122123583
19350,122-Glenlyon Rd/Lygon St (Brunswick East),-37.7725152855628,144.971613873111
19351,123-Albert St/Lygon St (Brunswick East),-37.7696490932208,144.972112248378
19352,124-Victoria St/Lygon St (Brunswick East),-37.7680772565049,144.972416295282
19353,125-Blyth St/Lygon St (Brunswick East),-37.7664689972755,144.972698618112
19354,126-Stewart St/Lygon St (Brunswick East),-37.7642948192678,144.973087193348
19355,127-Albion St/Holmes St (Brunswick East),-37.7618873859191,144.974061034217
19356,128-Donald St/Holmes St (Brunswick East),-37.7592637942277,144.974518554184
19357,129-Moreland Rd/Nicholson St (Coburg),-37.756541114801,144.974978739565
19358,129-Holmes St/Moreland Rd (Brunswick),-37.7565710993047,144.974626051647
19359,130-Barrow St/Moreland Rd (Coburg),-37.7560584767765,144.969974947721
19360,131-De Carle St/Moreland Rd (Coburg),-37.7556625818666,144.96635360862
19361,132-Sydney Rd/Moreland Rd (Coburg),-37.7553400394646,144.963853991965
19362,133-Moreland Rd/Cameron St (Coburg),-37.7552920111383,144.962118691852
19363,130-The Avenue/Nicholson St (Coburg),-37.7533717117751,144.976188824924
19364,131-Rennie St/Nicholson St (Coburg),-37.7512172816021,144.97667882242
19365,132-Crozier St/Nicholson St (Coburg),-37.7493932092725,144.976989548886
19366,133-Harding St/Nicholson St (Coburg),-37.7460589643356,144.977522961256
19367,134-Merribell Ave/Nicholson St (Coburg),-37.7443709754617,144.977886679608
19368,135-Bell St/Nicholson St (Coburg),-37.7428267179618,144.978223771466
19369,125A-Southbank Tram Depot/Light Rail (South Melbourne),-37.8274525720388,144.953988428214
19370,126-Montague St/Light Rail (South Melbourne),-37.8302402752806,144.948469066745
19371,127-North Port Station/Light Rail (Port Melbourne),-37.8332177735982,144.943512134645
19372,128-Graham St/Light Rail (Port Melbourne),-37.8370819090198,144.937223380079
19374,13-Lansdowne St/Victoria Pde (Fitzroy),-37.8084358842387,144.978400573398
19376,42-Grice Cres/Mt Alexander Rd (Essendon),-37.7526537549355,144.915883120358
19377,16-Wellington St/Victoria Pde (Collingwood),-37.8091972252004,144.985490373446
19379,18-Hoddle St/Victoria Pde (Collingwood),-37.8097322860376,144.990962142565
19381,19-North Richmond Railway Station/Victoria St (Abbotsford),-37.8096608908627,144.992588388802
19382,20-Nicholson St/Victoria St (Abbotsford),-37.8099948593243,144.995793905039
19383,21-Church St/Victoria St (Abbotsford),-37.8104897001077,145.000517209106
19384,22-McKay St/Victoria St (Richmond),-37.8108288436956,145.004040713844
19385,23-Flockhart St/Victoria St (Abbotsford),-37.8111228212826,145.00703159059
19386,24-Burnley St/Victoria St (Richmond),-37.8113598088515,145.010387514114
19387,25-River Bvd/Victoria St (Richmond),-37.8117596123745,145.013250652715
19388,26-Harrison Cres/Barkers Rd (Hawthorn),-37.8121576254134,145.016011638121
19389,27-Findon Cres/Barkers Rd (Kew),-37.8127128084306,145.020620024291
19391,29-High St/Barkers Rd (Kew),-37.8130261494537,145.023178876986
19393,31-Stevenson St/High St (Kew),-37.8102284379498,145.026161391233
19394,32-Kew Junction/High St (Kew),-37.8076022483936,145.028627980816
19395,33-Kew Shopping Centre/High St (Kew),-37.8068136897636,145.030511737261
19396,34-QPO/Cotham Rd (Kew),-37.8068869095515,145.031656996439
19397,35-Charles St/Cotham Rd (Kew),-37.8073082750911,145.035303254178
19398,36-Glenferrie Rd/Cotham Rd (Kew),-37.8076220504409,145.037907411745
19399,37-Belmont Ave/Cotham Rd (Kew),-37.8081189285074,145.042312780151
19400,38-Marshall Ave/Cotham Rd (Kew),-37.8085288868384,145.045834519302
19401,39-Thomas St/Cotham Rd (Kew),-37.808937424302,145.049276824947
19402,40-St Georges Hospital/Cotham Rd (Kew),-37.8093760776984,145.052911480011
19403,41-Kew Traffic School/Cotham Rd (Kew),-37.8099322539185,145.057667636762
19404,42-Burke Rd/Cotham Rd (Kew),-37.8102763039332,145.060498377894
19405,43-Deepdene Shopping Centre/Whitehorse Rd (Balwyn),-37.8107873754158,145.064721953422
19406,44-Deepdene Park/Whitehorse Rd (Balwyn),-37.8112373585209,145.068526891236
19407,45-Hardwicke St/Whitehorse Rd (Balwyn),-37.8115905300692,145.071380218144
19408,46-Balwyn Cinema/Whitehorse Rd (Balwyn),-37.8121131919964,145.075785398596
19409,47-Balwyn Rd/Whitehorse Rd (Balwyn),-37.8127690825342,145.081186824158
19410,48-Balwyn Shopping Centre/Whitehorse Rd (Balwyn),-37.8130610650703,145.08362155594
19411,49-Northcote Ave/Whitehorse Rd (Balwyn),-37.8135518238816,145.087755110917
19412,50-Wharton St/Whitehorse Rd (Surrey Hills),-37.8140301186813,145.091684570099
19413,51-Narrak Rd/Whitehorse Rd (Balwyn),-37.8144047931031,145.094787485194
19414,53-Union Rd/Whitehorse Rd (Balwyn),-37.8149730952001,145.09928272045
19416,54-Inglisby Rd/Whitehorse Rd (Mont Albert),-37.8154223381677,145.103110840294
19417,55-Hood St/Whitehorse Rd (Mont Albert),-37.8161913963783,145.109464122634
19418,56-Elgar Rd/Whitehorse Rd (Box Hill),-37.8169294559612,145.115591127778
19419,57-Nelson Rd/Whitehorse Rd (Box Hill),-37.8174573123757,145.119860510163
19421,61-Elgar Rd/Riversdale Rd (Surrey Hills),-37.837640542085,145.110632493869
19422,60-Ferndale St/Riversdale Rd (Surrey Hills),-37.8370900484065,145.106658047229
19423,59-Alandale St/Riversdale Rd (Surrey Hills),-37.8368593356958,145.104641299056
19424,58-Wattle Park/1013 Riversdale Rd (Surrey Hills),-37.8365313668476,145.102183893886
19425,57-Glendale St/Riversdale Rd (Surrey Hills),-37.8362036876023,145.10030602077
19426,56-Warrigal Rd/Riversdale Rd (Surrey Hills),-37.8358978661392,145.098109438719
19427,55-Union Rd/Riversdale Rd (Surrey Hills),-37.8356006504647,145.095333142403
19428,54-Through Rd/Riversdale Rd (Surrey Hills),-37.8353208418054,145.093079115822
19429,53-Essex Rd/Riversdale Rd (Surrey Hills),-37.8350880570942,145.090948886461
19430,52-Lockhart St/Riversdale Rd (Camberwell),-37.8347540882437,145.088139512373
19431,51-Highfield Rd/Riversdale Rd (Canterbury),-37.8343672535346,145.084854295221
19432,50-Wattle Valley Rd/Riversdale Rd (Canterbury),-37.8341185344958,145.081201928841
19433,49-Glyndon Rd/Riversdale Rd (Camberwell),-37.833906888361,145.079275755094
19434,48-Cooloongatta Rd/Riversdale Rd (Camberwell),-37.8336550978996,145.077100656852
19435,47-Willow Gr/Riversdale Rd (Canterbury),-37.8331096013007,145.072399358304
19436,46-Spencer Rd/Riversdale Rd (Canterbury),-37.8328092937221,145.070021048091
19438,44-Derby St/Riversdale Rd (Camberwell),-37.8323359035549,145.065886097739
19439,43-Trafalgar Rd/Riversdale Rd (Camberwell),-37.8320624897151,145.063507137785
19440,42-Fermanagh Rd/Riversdale Rd (Camberwell),-37.8316836077887,145.060199247267
19441,41-Camberwell Market/517 Riversdale Rd (Camberwell),-37.8314068949486,145.057627259126
19442,40-Camberwell Junction/Riversdale Rd (Hawthorn East),-37.8312699238331,145.05642645311
19443,39-Camberwell Tram Depot/Riversdale Rd (Hawthorn East),-37.8310276616649,145.054308077781
19444,38-Hastings Rd/Riversdale Rd (Hawthorn East),-37.8306901951904,145.051340059514
19445,37-Tooronga Rd/Riversdale Rd (Hawthorn East),-37.8302593441175,145.047635995247
19446,36-Auburn Rd/Riversdale Rd (Hawthorn East),-37.8297761672902,145.043501602119
19447,35-Robinson Rd/Riversdale Rd (Hawthorn),-37.829536508623,145.041553676203
19448,34-Kooyongkoot Rd/Riversdale Rd (Hawthorn),-37.8291788159106,145.038472697919
19449,33-Berkeley St/Riversdale Rd (Hawthorn),-37.8289886593795,145.036796177854
19450,32-Glenferrie Rd/Riversdale Rd (Hawthorn),-37.8286348261228,145.033953742867
19451,31-Fordholm Rd/Riversdale Rd (Hawthorn),-37.8283506261643,145.031507146698
19452,30-Through St/Riversdale Rd (Hawthorn),-37.8280757638988,145.029083045127
19454,29-Power St/Riversdale Rd (Hawthorn),-37.8275688627156,145.02572212908
19456,18-Eastern Dr/Swan St (Burnley),-37.8264550585692,145.020037005522
19457,17-Madden Gr/Swan St (Richmond),-37.8272820066508,145.016697323415
19458,16-Park Gr/Swan St (Burnley),-37.827198499793,145.012279916519
19459,15-Stawell St/Swan St (Richmond),-37.8269010057219,145.009606586093
19460,14-Burnley St/Swan St (Richmond),-37.826594251579,145.006922165902
19461,13-Edinburgh St/Swan St (Richmond),-37.8263923328774,145.005109772975
19462,12-Coppin St/Swan St (Richmond),-37.8261021438062,145.002345415393
19463,11-Church St/Swan St (Richmond),-37.8256100528601,144.99778008962
19464,10-Swan Street Shopping Centre/Swan St (Richmond),-37.8253798120394,144.995900346919
19465,9-Lennox St/Swan St (Richmond),-37.8250919249478,144.993283700079
19466,8-Cremorne St/Swan St (Cremorne),-37.8248278090044,144.991007264162
19467,43-Brewster St/Mt Alexander Rd (Essendon),-37.7502999585745,144.914258078542
19468,44-Thorn St/Mt Alexander Rd (Essendon),-37.7481014766077,144.912753614051
19469,45-Glass St/Mt Alexander Rd (Essendon),-37.74648648161,144.911630044843
19470,47-Mt Alexander Rd/Keilor Rd (Essendon),-37.743951582351,144.908943590641
19471,48-Service St/Keilor Rd (Essendon North),-37.7426875938019,144.905767565939
19472,49-Essendon North PS/Keilor Rd (Essendon North),-37.7415008299553,144.902884523758
19473,50-Cooper St/Keilor Rd (Essendon North),-37.7400320541911,144.899351361242
19475,53-Keilor Rd/Matthews Ave (Niddrie),-37.7359691486337,144.889344369528
19477,54-Fullarton Rd/Matthews Ave (Niddrie),-37.7323551694316,144.88983279494
19478,55-Cameron St/Matthews Ave (Airport West),-37.7299563431597,144.890241290121
19479,56-Earl St/Matthews Ave (Airport West),-37.7273235296986,144.890667740737
19480,57-Hawker St/Matthews Ave (Airport West),-37.7230648732098,144.891389872909
19481,58-Marshall Rd/Matthews Ave (Airport West),-37.7183910636757,144.892078300182
19482,59-Airport West/Matthews Ave (Airport West),-37.7138400228432,144.89056241795
19489,1-Melbourne University/Swanston St (Carlton),-37.7981828809714,144.964415720093
19491,3-Lincoln Square/Swanston St (Carlton),-37.802369778944,144.963687454424
19492,4-Queensberry St/Swanston St (Carlton),-37.8056310562454,144.963109471081
19494,7-RMIT University/Swanston St (Melbourne City),-37.8083834454059,144.963329160117
19495,8-Melbourne Central Station/Swanston St (Melbourne City),-37.8104544288352,144.964271834718
19497,10-Bourke Street Mall/Swanston St (Melbourne City),-37.8133973834091,144.965610914063
19498,11-City Square/Swanston St (Melbourne City),-37.816377530686,144.967017233192
19499,13-Federation Square/Swanston St (Melbourne City),-37.8185211356794,144.967992191829
19500,14-Arts Centre/St Kilda Rd (Southbank),-37.8207830061956,144.969032125098
19502,17-Grant St/St Kilda Rd (Southbank),-37.8246981317787,144.970833454051
19504,19-Shrine of Remembrance/St Kilda Rd (Melbourne City),-37.8288259100354,144.971379354133
19505,20-Domain Interchange/St Kilda Rd (Melbourne City),-37.8326151169028,144.97215046033
19506,21-Bowen Lane/St Kilda Rd (South Melbourne),-37.8341052272644,144.97390493754
19528,22-Toorak Rd/St Kilda Rd (Melbourne City),-37.8371573232335,144.975832679148
19539,23-Slater St/St Kilda Rd (Melbourne City),-37.8388552004503,144.976570328513
19560,24-Armadale St/St Kilda Rd (South Melbourne),-37.8415374295701,144.977428844613
19561,25-Commercial Rd/St Kilda Rd (South Melbourne),-37.8450291242576,144.978719880281
19562,26-Moubray St/St Kilda Rd (South Melbourne),-37.8478946090258,144.979755368523
19563,27-High St/St Kilda Rd (South Melbourne),-37.8498638592315,144.980553989355
19565,29-Union St/St Kilda Rd (St Kilda),-37.8529382556881,144.981686199224
19566,30-St Kilda Junction/St Kilda Rd (St Kilda),-37.8550308733092,144.982322435756
19567,31-Queens Way/Queens Way (St Kilda),-37.85613644093,144.987418331007
19568,30-St Kilda Junction/St Kilda Rd (St Kilda),-37.8552957912147,144.982531162691
19569,29-Union St/St Kilda Rd (St Kilda),-37.8528366406327,144.981541219972
19571,27-Lorne St/St Kilda Rd (Melbourne City),-37.8499177094548,144.980541155039
19572,26-Beatrice St/St Kilda Rd (Melbourne City),-37.8475515435662,144.979719273739
19573,25-Commercial Rd/St Kilda Rd (Melbourne City),-37.8445229479942,144.978631424193
19574,24-Leopold St/St Kilda Rd (Melbourne City),-37.8411585285404,144.977405105039
19575,23-Arthur St/St Kilda Rd (Melbourne City),-37.8392975446707,144.976615056476
19589,13-Curzon St/Queensberry St (North Melbourne),-37.8029418579062,144.948361528022
19590,12-North Melbourne Town Hall/Errol St (North Melbourne),-37.8032236364799,144.94953493664
19591,14-Royal Melbourne Hospital/Flemington Rd (North Melbourne),-37.7998256705342,144.955205315941
19592,16-Harker St/Flemington Rd (North Melbourne),-37.7967579297811,144.951360469812
19594,19-Royal Childrens Hospital/Flemington Rd (North Melbourne),-37.7937172912745,144.947526544808
19595,20-Melrose St/Flemington Rd (North Melbourne),-37.790474210777,144.943460072047
19597,22-Boundary Rd/Flemington Rd (North Melbourne),-37.7880542946049,144.940608824108
19598,23-Flemington Community Centre/Mt Alexander Rd (Flemington),-37.7855975547744,144.938746671673
19599,24-Mooltan St/Mt Alexander Rd (Flemington),-37.7841908121892,144.93715066464
19600,25-Mount Alexander College/Mt Alexander Rd (Travancore),-37.7825652425936,144.933868976617
19601,26-Wellington St/Mt Alexander Rd (Flemington),-37.7814356310424,144.932662806085
19602,27-Essendon Tram Depot/Mt Alexander Rd (Ascot Vale),-37.7798078134015,144.931311603326
19603,28-Middle St/Mt Alexander Rd (Ascot Vale),-37.7776990022178,144.929769508257
19604,29-Warrick St/Mt Alexander Rd (Ascot Vale),-37.7757476884184,144.928472878621
19605,30-Maribyrnong Rd/Mt Alexander Rd (Ascot Vale),-37.7730083301957,144.926948557246
19606,31-Montgomery St/Mt Alexander Rd (Moonee Ponds),-37.7706858736381,144.926071149587
19607,32-Ascot Vale Rd/Mt Alexander Rd (Moonee Ponds),-37.7677375083094,144.924961538512
19608,32-Moonee Ponds Junction/Pascoe Vale Rd (Moonee Ponds),-37.7666534304024,144.924810208497
19609,34-Moonee Valley Civic Centre/Pascoe Vale Rd (Moonee Ponds),-37.7640046605455,144.925361021904
19623,35-Queens Park/Pascoe Vale Rd (Moonee Ponds),-37.762701992974,144.9255903994
19624,36-Murray St/Pascoe Vale Rd (Moonee Ponds),-37.7598628633766,144.926078359423
19625,37-Buckley St/Pascoe Vale Rd (Moonee Ponds),-37.7582545419262,144.926350296455
19626,38-Fletcher St/Pascoe Vale Rd (Essendon),-37.7561132084464,144.926035525528
19627,39-Hoddle St/Fletcher St (Essendon),-37.7556931421918,144.923164247792
19628,40-Nicholson St/Fletcher St (Essendon),-37.7554559603423,144.920957554971
19657,41-Fletcher St/Napier St (Essendon),-37.7549420733213,144.917373894694
19658,42-Shamrock St/Mt Alexander Rd (Essendon),-37.7524964161599,144.915649187051
19659,43-Thistle St/Mt Alexander Rd (Essendon),-37.7505895978618,144.914329392591
19660,44-Thorn St/Mt Alexander Rd (Essendon),-37.7483546855812,144.912803245555
19661,45-Leake St/Mt Alexander Rd (Essendon),-37.7463843853141,144.911462680271
19662,46-Lincoln Rd/Mt Alexander Rd (Essendon),-37.7447695803483,144.910350507015
19663,47-Mt Alexander Rd/Keilor Rd (Essendon),-37.7441431508552,144.909074382352
19664,48-Service St/Keilor Rd (Essendon),-37.7428214929672,144.905695701091
19665,49-Gillies St/Keilor Rd (Essendon North),-37.7417016137891,144.903026383841
19666,50-Cooper St/Keilor Rd (Essendon),-37.7402044047966,144.899414576754
19667,51-Bradshaw St/Keilor Rd (Essendon),-37.7387723675467,144.895925896243
19669,53A-Matthews Ave/Keilor Rd (Essendon),-37.7365516321375,144.890167536147
19670,53-Keilor Rd/Matthews Ave (Niddrie),-37.7353904546099,144.889235985386
19671,54-Fullarton Rd/Matthews Ave (Airport West),-37.732370746494,144.889696191093
19672,55-Cameron St/Matthews Ave (Airport West),-37.7299633197763,144.890127627779
19673,56-Earl St/Matthews Ave (Airport West),-37.7272052181529,144.890603021762
19674,57-Hawker St/Matthews Ave (Airport West),-37.7231170902084,144.891286283488
19675,58-Marshall Rd/Matthews Ave (Airport West),-37.718416259879,144.891975483905
19676,22-Toorak Rd/St Kilda Rd (Melbourne City),-37.8359526840563,144.975479273054
19677,21-Bowen Cres/St Kilda Rd (Melbourne City),-37.8340061447049,144.973907648418
19678,20-Domain Interchange/St Kilda Rd (Melbourne City),-37.8327222287582,144.972090715753
19679,19-Shrine of Remembrance/St Kilda Rd (Melbourne City),-37.8289314561125,144.97122876072
19681,17-Grant St/St Kilda Rd (Southbank),-37.8242140793787,144.970460438564
19684,14-Arts Centre/St Kilda Rd (Southbank),-37.8204904568971,144.96879021486
19685,13-Federation Square/Swanston St (Melbourne City),-37.8180650776621,144.967675256845
19686,11-City Square/Swanston St (Melbourne City),-37.8157299600358,144.966569251292
19687,10-Bourke Street Mall/Swanston St (Melbourne City),-37.8130684054786,144.965347321807
19689,8-Melbourne Central Station/Swanston St (Melbourne City),-37.8098718644288,144.963935712654
19691,7-RMIT University/Swanston St (Melbourne City),-37.8078179115834,144.962935793724
19693,4-Queensberry St/Swanston St (Carlton),-37.8051354479789,144.963111730898
19694,3-Lincoln Square/Swanston St (Carlton),-37.802628836921,144.963555404388
19696,1-Melbourne University/Swanston St (Carlton),-37.7986124941465,144.964244926979
19697,34-Inkerman St/St Kilda    Rd (St Kilda),-37.8644335549877,144.985680771577
19698,34-Inkerman St/St Kilda Rd (St Kilda),-37.8647670278319,144.985683058132
19699,15-Murphy St/Flemington Rd (North Melbourne),-37.7975869591728,144.952393756915
19700,33-Argyle St/St Kilda Rd (St Kilda),-37.8623198263945,144.984863075449
19701,33-Argyle St/St Kilda Rd (St Kilda),-37.862140454009,144.984913428919
19702,32-Alma Rd/St Kilda Rd (St Kilda),-37.860309650828,144.984304033253
19703,32-Alma Rd/St Kilda Rd (St Kilda),-37.8603458754877,144.9843144129
19704,31-Barkly St/St Kilda Rd (St Kilda),-37.8579309972707,144.983277679025
19705,31-Barkly St/St Kilda Rd (St Kilda),-37.8576327757835,144.983228976619
19706,15-Epworth Hospital/Bridge Rd (Richmond),-37.8177503321133,144.99240333531
19708,17-Bosisto St/Bridge Rd (Richmond),-37.8182496934573,144.996854341113
19709,18-Church St/Bridge Rd (Richmond),-37.8184889219345,144.998733664209
19710,19-Richmond Town Hall/Bridge Rd (Richmond),-37.818750044615,145.001373544529
19711,20-Coppin St/Bridge Rd (Richmond),-37.8189765776176,145.003571325794
19712,21-Burnley St/Bridge Rd (Richmond),-37.8195349641126,145.008872928226
19713,22-Yarra Bvd/Bridge Rd (Richmond),-37.820100015033,145.014049471062
19714,22-Yarra Bvd/Bridge Rd (Richmond),-37.8202997176807,145.014135002175
19715,21-Burnley St/Bridge Rd (Richmond),-37.8194983173176,145.00777195843
19716,20-Coppin St/Bridge Rd (Richmond),-37.8190825926885,145.003977439561
19717,19-Richmond Town Hall/Bridge Rd (Richmond),-37.8188130983816,145.001371843736
19718,18-Church St/Bridge Rd (Richmond),-37.8186534371801,144.999399473246
19719,17-Waltham St/Bridge Rd (Richmond),-37.8184360277015,144.997212829267
19721,125A-Southbank Tram Depot/Light Rail (South Melbourne),-37.8276910352174,144.953709164784
19722,126-Montague St/Light Rail (South Melbourne),-37.830244232922,144.948696195165
19723,127-North Port Station/Light Rail (Port Melbourne),-37.8334309737483,144.943335778363
19724,128-Graham St/Light Rail (Port Melbourne),-37.8370320441653,144.937463390669
19725,129-Beacon Cove/Light Rail (Port Melbourne),-37.8407636334626,144.932882219594
19726,13-Lansdowne St/Victoria Pde (East Melbourne),-37.8085509912291,144.978806344493
19728,15-Smith St/Victoria Pde (East Melbourne),-37.8089780722504,144.982690730748
19729,16-Wellington St/Victoria Pde (East Melbourne),-37.809291574135,144.985737701673
19731,18-Hoddle St/Victoria St (Richmond),-37.8097702536058,144.991074701775
19732,19-North Richmond Railway Station/Victoria St (Richmond),-37.8098374551494,144.992901654541
19733,20-Lennox St/Victoria St (Richmond),-37.8101627940861,144.996130131071
19734,15-Epworth Hospital/Bridge Rd (Richmond),-37.8178670441325,144.992377452967
19735,22-McKay St/Victoria St (Richmond),-37.8109762385494,145.004229848209
19736,23-Leslie St/Victoria St (Richmond),-37.8113129668846,145.00761715073
19737,24-Burnley St/Victoria St (Richmond),-37.8115085277833,145.010122261699
19738,25-River Bvd/Victoria St (Richmond),-37.8117994784259,145.012942886091
19739,26-Harrison Cres/Barkers Rd (Hawthorn),-37.8122961852786,145.016212395691
19740,27-Findon St/Barkers Rd (Hawthorn),-37.8128496430794,145.020718603937
19742,29-Barkers Rd/High St (Kew),-37.8129639975127,145.023771222561
19744,31-Stevenson St/High St (Kew),-37.8100810138232,145.026506085495
19745,32-Kew Junction/High St (Kew),-37.8074306433417,145.029143678916
19746,34-QPO/Cotham Rd (Kew),-37.8069891204168,145.031302169615
19747,35-Charles St/Cotham Rd (Kew),-37.8074745840642,145.035548734521
19748,36-Glenferrie Rd/Cotham Rd (Kew),-37.8077990643766,145.038254843236
19749,37-Belmont Ave/Cotham Rd (Kew),-37.8083158327568,145.042773286453
19750,38-Marshall Ave/Cotham Rd (Kew),-37.8087056896125,145.046170621114
19751,39-Thomas St/Cotham Rd (Kew),-37.8091164740559,145.04974918385
19752,40-St Georges Hospital/Cotham Rd (Kew),-37.8095226457735,145.053055295582
19753,41-Kew Traffic School/Cotham Rd (Kew),-37.8100979560333,145.0578791155
19754,34-Kooyongkoot Rd/Riversdale Rd (Hawthorn),-37.8293066289041,145.038571570325
19755,35-Robinson Rd/Riversdale Rd (Hawthorn),-37.8296622411541,145.041527627719
19756,36-Auburn Rd/Riversdale Rd (Hawthorn East),-37.829934585452,145.043815554006
19757,37-Tooronga Rd/Riversdale Rd (Hawthorn East),-37.8303800251181,145.047848693916
19758,38-Hastings Rd/Riversdale Rd (Hawthorn East),-37.8308390212099,145.051620198158
19759,39-Camberwell Tram Depot/Riversdale Rd (Hawthorn East),-37.8312158904031,145.054791709013
19760,40-Camberwell Junction/Riversdale Rd (Camberwell),-37.8314891039799,145.057147887306
19761,42-Fermanagh Rd/Riversdale Rd (Camberwell),-37.8318275483394,145.060184114918
19762,43-Trafalgar Rd/Riversdale Rd (Camberwell),-37.8322484402192,145.063854510376
19763,44-Derby St/Riversdale Rd (Camberwell),-37.8324830168563,145.066064055017
19764,46-Spencer Rd/Riversdale Rd (Camberwell),-37.8329419936935,145.069869877127
19765,47-Willow Gr/Riversdale Rd (Camberwell),-37.8332762086999,145.072667723802
19766,48-Cooloongatta Rd/Riversdale Rd (Camberwell),-37.8337926303707,145.07724480052
19767,49-Glyndon Rd/Riversdale Rd (Camberwell),-37.8340841560235,145.07964612717
19768,50-Wattle Valley Rd/Riversdale Rd (Canterbury),-37.8342948708539,145.081515517037
19769,51-Highfield Rd/Riversdale Rd (Camberwell),-37.8345342028486,145.085145410446
19770,52-Lockhart St/Riversdale Rd (Camberwell),-37.8349226893673,145.088532859741
19771,53-Essex Rd/Riversdale Rd (Camberwell),-37.8352145393679,145.09096835168
19772,54-Through Rd/Riversdale Rd (Camberwell),-37.8355307929839,145.093800939025
19773,55-Union Rd/Riversdale Rd (Canterbury),-37.8357616896196,145.095817609462
19774,56-Warrigal Rd/Riversdale Rd (Surrey Hills),-37.836064600131,145.098389232769
19775,57-Glendale St/Riversdale Rd (Surrey Hills),-37.8362711708137,145.100020212408
19776,58-Wattle Park/1013 Riversdale Rd (Surrey Hills),-37.8367545204474,145.102609975013
19777,59-Alandale St/Riversdale Rd (Surrey Hills),-37.8370152180147,145.104807757263
19778,42-Burke Rd/Whitehorse Rd (Balwyn),-37.8104444319021,145.060857468272
19779,60-Ferndale St/Riversdale Rd (Surrey Hills),-37.8372338145336,145.106631644828
19781,58-Box Hill Central/Whitehorse Rd (Box Hill),-37.8178755249388,145.122349164379
